$GPRMC,140329.963,V,4844.6742,N,00906.3774,E,,,040708,,,N*7F
$GPVTG,,T,,M,,N,,K,N*2C
$GPGGA,140330.963,4844.6742,N,00906.3774,E,0,00,,466.5,M,48.0,M,,0000*74
$GPGSA,A,1,,,,,,,,,,,,,,,*1E
$GPGSV,3,1,12,15,82,000,40,26,75,000,46,17,40,000,42,28,34,000,*7F
$GPGSV,3,2,12,09,32,000,48,18,21,000,,12,19,000,,10,08,000,*77
$GPGSV,3,3,12,08,05,000,,05,04,000,,22,00,000,,11,-6,000,*6D
$GPRMC,140330.963,V,4844.6742,N,00906.3774,E,,,040708,,,N*77
$GPVTG,,T,,M,,N,,K,N*2C
$GPGGA,140331.963,4844.6742,N,00906.3774,E,0,00,,466.5,M,48.0,M,,0000*75
$GPRMC,140331.963,V,4844.6742,N,00906.3774,E,,,040708,,,N*76
$GPVTG,,T,,M,,N,,K,N*2C
$GPGGA,140332.963,4844.6742,N,00906.3774,E,0,00,,466.5,M,48.0,M,,0000*76
$GPRMC,140332.963,V,4844.6742,N,00906.3774,E,,,040708,,,N*75
$GPVTG,,T,,M,,N,,K,N*2C
$GPGGA,140333.963,4844.6742,N,00906.3774,E,0,00,,466.5,M,48.0,M,,0000*77
$GPRMC,140333.963,V,4844.6742,N,00906.3774,E,,,040708,,,N*74
$GPVTG,,T,,M,,N,,K,N*2C
$GPGGA,140334.963,4844.6742,N,00906.3774,E,0,00,,466.5,M,48.0,M,,0000*70
$GPRMC,140334.963,V,4844.6742,N,00906.3774,E,,,040708,,,N*73
$GPVTG,,T,,M,,N,,K,N*2C
$GPGGA,140335.966,4844.6742,N,00906.3774,E,0,00,,466.5,M,48.0,M,,0000*74
$GPGSA,A,1,,,,,,,,,,,,,,,*1E
$GPGSV,3,1,12,15,82,000,39,26,75,000,45,17,40,000,41,28,34,000,*71
$GPGSV,3,2,12,09,32,000,46,18,21,000,,12,19,000,,10,08,000,*79
$GPGSV,3,3,12,08,05,000,,05,04,000,,22,00,000,,11,-6,000,*6D
$GPRMC,140335.966,V,4844.6742,N,00906.3774,E,,,040708,,,N*77
$GPVTG,,T,,M,,N,,K,N*2C
$GPGGA,140336.966,4844.6742,N,00906.3774,E,0,00,,466.5,M,48.0,M,,0000*77
$GPRMC,140336.966,V,4844.6742,N,00906.3774,E,,,040708,,,N*74
$GPVTG,,T,,M,,N,,K,N*2C
$GPGGA,140337.966,4844.6742,N,00906.3774,E,0,00,,466.5,M,48.0,M,,0000*76
$GPRMC,140337.966,V,4844.6742,N,00906.3774,E,,,040708,,,N*75
$GPVTG,,T,,M,,N,,K,N*2C
$GPGGA,140338.966,4844.6742,N,00906.3774,E,0,00,,466.5,M,48.0,M,,0000*79
$GPRMC,140338.966,V,4844.6742,N,00906.3774,E,,,040708,,,N*7A
$GPVTG,,T,,M,,N,,K,N*2C
$GPGGA,140339.966,4844.6742,N,00906.3774,E,0,00,,466.5,M,48.0,M,,0000*78
$GPRMC,140339.966,V,4844.6742,N,00906.3774,E,,,040708,,,N*7B
$GPVTG,,T,,M,,N,,K,N*2C
$GPGGA,140340.966,4844.6742,N,00906.3774,E,0,00,,466.5,M,48.0,M,,0000*76
$GPGSA,A,1,,,,,,,,,,,,,,,*1E
$GPGSV,3,1,12,15,82,000,39,26,75,000,46,17,40,000,40,28,34,000,*73
$GPGSV,3,2,12,09,32,000,45,18,21,000,27,12,19,000,37,10,08,000,*7B
$GPGSV,3,3,12,08,05,000,,05,04,000,,22,00,000,,11,-6,000,*6D
$GPRMC,140340.966,V,4844.6742,N,00906.3774,E,,,040708,,,N*75
$GPVTG,,T,,M,,N,,K,N*2C
$GPGGA,140341.966,4844.6742,N,00906.3774,E,0,00,,466.5,M,48.0,M,,0000*77
$GPRMC,140341.966,V,4844.6742,N,00906.3774,E,,,040708,,,N*74
$GPVTG,,T,,M,,N,,K,N*2C
$GPGGA,140342.966,4844.6742,N,00906.3774,E,0,00,,466.5,M,48.0,M,,0000*74
$GPRMC,140342.966,V,4844.6742,N,00906.3774,E,,,040708,,,N*77
$GPVTG,,T,,M,,N,,K,N*2C
$GPGGA,140343.965,4844.6742,N,00906.3774,E,0,00,,466.5,M,48.0,M,,0000*76
$GPRMC,140343.965,V,4844.6742,N,00906.3774,E,,,040708,,,N*75
$GPVTG,,T,,M,,N,,K,N*2C
$GPGGA,140344.966,4844.6742,N,00906.3774,E,0,00,,466.5,M,48.0,M,,0000*72
$GPRMC,140344.966,V,4844.6742,N,00906.3774,E,,,040708,,,N*71
$GPVTG,,T,,M,,N,,K,N*2C
$GPGGA,140345.966,4844.6742,N,00906.3774,E,0,00,,466.5,M,48.0,M,,0000*73
$GPGSA,A,1,,,,,,,,,,,,,,,*1E
$GPGSV,3,1,12,15,82,000,40,26,75,000,46,17,40,000,41,28,34,000,*7C
$GPGSV,3,2,12,09,32,000,45,18,21,000,27,12,19,000,37,10,08,000,10*7A
$GPGSV,3,3,12,08,05,000,,05,04,000,,22,00,000,,11,-6,000,*6D
$GPRMC,140345.966,V,4844.6742,N,00906.3774,E,,,040708,,,N*70
$GPVTG,,T,,M,,N,,K,N*2C
$GPGGA,140346.966,4844.6742,N,00906.3774,E,0,00,,466.5,M,48.0,M,,0000*70
$GPRMC,140346.966,V,4844.6742,N,00906.3774,E,,,040708,,,N*73
$GPVTG,,T,,M,,N,,K,N*2C
$GPGGA,140347.965,4844.6742,N,00906.3774,E,0,00,,466.5,M,48.0,M,,0000*72
$GPRMC,140347.965,V,4844.6742,N,00906.3774,E,,,040708,,,N*71
$GPVTG,,T,,M,,N,,K,N*2C
$GPGGA,140348.966,4844.6742,N,00906.3774,E,0,00,,466.5,M,48.0,M,,0000*7E
$GPRMC,140348.966,V,4844.6742,N,00906.3774,E,,,040708,,,N*7D
$GPVTG,,T,,M,,N,,K,N*2C
$GPGGA,140349.966,4844.6742,N,00906.3774,E,0,00,,466.5,M,48.0,M,,0000*7F
$GPRMC,140349.966,V,4844.6742,N,00906.3774,E,,,040708,,,N*7C
$GPVTG,,T,,M,,N,,K,N*2C
$GPGGA,140350.966,4844.6742,N,00906.3774,E,0,00,,466.5,M,48.0,M,,0000*77
$GPGSA,A,1,,,,,,,,,,,,,,,*1E
$GPGSV,3,1,12,15,82,000,41,26,75,000,45,17,40,000,41,28,34,000,*7E
$GPGSV,3,2,12,09,32,000,45,18,21,000,19,12,19,000,37,10,08,000,17*70
$GPGSV,3,3,12,08,05,000,,05,04,000,,22,00,000,14,11,-6,000,*68
$GPRMC,140350.966,V,4844.6742,N,00906.3774,E,,,040708,,,N*74
$GPVTG,,T,,M,,N,,K,N*2C
$GPGGA,140351.965,4844.6742,N,00906.3774,E,0,00,,466.5,M,48.0,M,,0000*75
$GPRMC,140351.965,V,4844.6742,N,00906.3774,E,,,040708,,,N*76
$GPVTG,,T,,M,,N,,K,N*2C
$GPGGA,140352.966,4844.6742,N,00906.3774,E,0,00,,466.5,M,48.0,M,,0000*75
$GPRMC,140352.966,V,4844.6742,N,00906.3774,E,,,040708,,,N*76
$GPVTG,,T,,M,,N,,K,N*2C
$GPGGA,140353.966,4844.6742,N,00906.3774,E,0,00,,466.5,M,48.0,M,,0000*74
$GPRMC,140353.966,V,4844.6742,N,00906.3774,E,,,040708,,,N*77
$GPVTG,,T,,M,,N,,K,N*2C
$GPGGA,140354.966,4844.6742,N,00906.3774,E,0,00,,466.5,M,48.0,M,,0000*73
$GPRMC,140354.966,V,4844.6742,N,00906.3774,E,,,040708,,,N*70
$GPVTG,,T,,M,,N,,K,N*2C
$GPGGA,140355.965,4844.6742,N,00906.3774,E,0,00,,466.5,M,48.0,M,,0000*71
$GPGSA,A,1,,,,,,,,,,,,,,,*1E
$GPGSV,3,1,12,15,82,000,43,26,75,000,45,17,40,000,41,28,34,000,*7C
$GPGSV,3,2,12,09,32,000,46,18,21,000,28,12,19,000,31,10,08,000,17*77
$GPGSV,3,3,12,08,05,000,,05,04,000,,22,00,000,21,11,-6,000,*6E
$GPRMC,140355.965,V,4844.6742,N,00906.3774,E,,,040708,,,N*72
$GPVTG,,T,,M,,N,,K,N*2C
$GPGGA,140356.966,4844.6742,N,00906.3774,E,0,00,,466.5,M,48.0,M,,0000*71
$GPRMC,140356.966,V,4844.6742,N,00906.3774,E,,,040708,,,N*72
$GPVTG,,T,,M,,N,,K,N*2C
$GPGGA,140357.966,4844.6742,N,00906.3774,E,0,00,,466.5,M,48.0,M,,0000*70
$GPRMC,140357.966,V,4844.6742,N,00906.3774,E,,,040708,,,N*73
$GPVTG,,T,,M,,N,,K,N*2C
$GPGGA,140358.964,4844.6897,N,00906.3928,E,1,04,3.8,471.2,M,48.0,M,,0000*5C
$GPRMC,140358.964,A,4844.6897,N,00906.3928,E,0.00,,040708,,,A*78
$GPVTG,,T,,M,0.00,N,0.0,K,A*13
$GPGGA,140359.963,4844.6904,N,00906.3934,E,1,04,3.8,469.7,M,48.0,M,,0000*50
$GPRMC,140359.963,A,4844.6904,N,00906.3934,E,0.00,,040708,,,A*78
$GPVTG,,T,,M,0.00,N,0.0,K,A*13
$GPGGA,140401.000,4844.6903,N,00906.3934,E,1,04,3.8,469.5,M,48.0,M,,0000*53
$GPGSA,A,3,15,26,09,17,,,,,,,,,3.9,3.8,1.0*3D
$GPGSV,3,1,10,15,72,186,42,26,59,152,45,09,41,281,45,17,33,107,41*7E
$GPGSV,3,2,10,28,39,054,,18,30,290,28,12,14,220,40,22,11,325,*75
$GPGSV,3,3,10,08,02,086,18,05,00,227,*77
$GPRMC,140401.000,A,4844.6903,N,00906.3934,E,0.00,,040708,,,A*79
$GPVTG,,T,,M,0.00,N,0.0,K,A*13
$GPGGA,140402.000,4844.6903,N,00906.3933,E,1,04,3.8,469.3,M,48.0,M,,0000*51
$GPRMC,140402.000,A,4844.6903,N,00906.3933,E,0.00,,040708,,,A*7D
$GPVTG,,T,,M,0.00,N,0.0,K,A*13
$GPGGA,140403.000,4844.6903,N,00906.3934,E,1,04,3.8,469.2,M,48.0,M,,0000*56
$GPRMC,140403.000,A,4844.6903,N,00906.3934,E,0.00,,040708,,,A*7B
$GPVTG,,T,,M,0.00,N,0.0,K,A*13
$GPGGA,140404.000,4844.6902,N,00906.3933,E,1,04,3.8,469.2,M,48.0,M,,0000*57
$GPRMC,140404.000,A,4844.6902,N,00906.3933,E,0.00,,040708,,,A*7A
$GPVTG,,T,,M,0.00,N,0.0,K,A*13
$GPGGA,140405.000,4844.6891,N,00906.3923,E,1,04,3.8,468.8,M,48.0,M,,0000*57
$GPRMC,140405.000,A,4844.6891,N,00906.3923,E,0.00,,040708,,,A*71
$GPVTG,,T,,M,0.00,N,0.0,K,A*13
$GPGGA,140406.000,4844.6888,N,00906.3921,E,1,04,3.8,468.5,M,48.0,M,,0000*53
$GPGSA,A,3,15,26,09,17,,,,,,,,,3.9,3.8,1.0*3D
$GPGSV,3,1,10,15,72,186,42,26,59,152,43,09,41,281,46,17,33,107,37*7A
$GPGSV,3,2,10,28,39,054,24,18,30,290,29,12,14,220,20,22,11,325,*74
$GPGSV,3,3,10,08,02,086,14,05,00,227,*7B
$GPRMC,140406.000,A,4844.6888,N,00906.3921,E,0.00,,040708,,,A*78
$GPVTG,,T,,M,0.00,N,0.0,K,A*13
$GPGGA,140407.000,4844.6887,N,00906.3921,E,1,04,3.8,468.2,M,48.0,M,,0000*5A
$GPRMC,140407.000,A,4844.6887,N,00906.3921,E,0.00,,040708,,,A*76
$GPVTG,,T,,M,0.00,N,0.0,K,A*13
$GPGGA,140408.000,4844.6885,N,00906.3920,E,1,04,3.8,468.0,M,48.0,M,,0000*54
$GPRMC,140408.000,A,4844.6885,N,00906.3920,E,0.00,,040708,,,A*7A
$GPVTG,,T,,M,0.00,N,0.0,K,A*13
$GPGGA,140409.000,4844.6883,N,00906.3919,E,1,04,3.8,467.8,M,48.0,M,,0000*5E
$GPRMC,140409.000,A,4844.6883,N,00906.3919,E,0.00,,040708,,,A*77
$GPVTG,,T,,M,0.00,N,0.0,K,A*13
$GPGGA,140410.000,4844.6881,N,00906.3917,E,1,04,3.7,467.7,M,48.0,M,,0000*5A
$GPRMC,140410.000,A,4844.6881,N,00906.3917,E,0.00,,040708,,,A*73
$GPVTG,,T,,M,0.00,N,0.0,K,A*13
$GPGGA,140411.000,4844.6878,N,00906.3914,E,1,04,3.7,467.5,M,48.0,M,,0000*5C
$GPGSA,A,3,15,26,09,17,,,,,,,,,3.9,3.7,1.0*32
$GPGSV,3,1,10,15,72,186,42,26,59,152,43,09,41,281,47,17,33,107,33*7F
$GPGSV,3,2,10,28,39,054,26,18,30,290,25,12,14,220,33,22,11,325,18*71
$GPGSV,3,3,10,08,02,086,14,05,00,227,*7B
$GPRMC,140411.000,A,4844.6878,N,00906.3914,E,0.00,,040708,,,A*77
$GPVTG,,T,,M,0.00,N,0.0,K,A*13
$GPGGA,140412.000,4844.6874,N,00906.3911,E,1,04,3.7,467.4,M,48.0,M,,0000*57
$GPRMC,140412.000,A,4844.6874,N,00906.3911,E,0.00,,040708,,,A*7D
$GPVTG,,T,,M,0.00,N,0.0,K,A*13
$GPGGA,140413.000,4844.6871,N,00906.3908,E,1,04,3.7,467.3,M,48.0,M,,0000*5C
$GPRMC,140413.000,A,4844.6871,N,00906.3908,E,0.00,,040708,,,A*71
$GPVTG,,T,,M,0.00,N,0.0,K,A*13
$GPGGA,140414.000,4844.6868,N,00906.3906,E,1,04,3.7,467.2,M,48.0,M,,0000*5C
$GPRMC,140414.000,A,4844.6868,N,00906.3906,E,0.00,,040708,,,A*70
$GPVTG,,T,,M,0.00,N,0.0,K,A*13
$GPGGA,140415.000,4844.6867,N,00906.3904,E,1,04,3.7,467.2,M,48.0,M,,0000*50
$GPRMC,140415.000,A,4844.6867,N,00906.3904,E,0.00,,040708,,,A*7C
$GPVTG,,T,,M,0.00,N,0.0,K,A*13
$GPGGA,140416.000,4844.6866,N,00906.3904,E,1,04,3.7,467.1,M,48.0,M,,0000*51
$GPGSA,A,3,15,26,09,17,,,,,,,,,3.9,3.7,1.0*32
$GPGSV,3,1,10,15,72,186,42,26,59,152,43,09,41,281,47,17,33,107,34*78
$GPGSV,3,2,10,28,39,054,22,18,30,290,30,12,14,220,35,22,11,325,20*7C
$GPGSV,3,3,10,08,02,086,,05,00,227,*7E
$GPRMC,140416.000,A,4844.6866,N,00906.3904,E,0.00,,040708,,,A*7E
$GPVTG,,T,,M,0.00,N,0.0,K,A*13
$GPGGA,140417.000,4844.6866,N,00906.3904,E,1,04,3.7,467.0,M,48.0,M,,0000*51
$GPRMC,140417.000,A,4844.6866,N,00906.3904,E,0.00,,040708,,,A*7F
$GPVTG,,T,,M,0.00,N,0.0,K,A*13
$GPGGA,140418.000,4844.6867,N,00906.3904,E,1,04,3.7,467.0,M,48.0,M,,0000*5F
$GPRMC,140418.000,A,4844.6867,N,00906.3904,E,0.00,,040708,,,A*71
$GPVTG,,T,,M,0.00,N,0.0,K,A*13
$GPGGA,140419.000,4844.6867,N,00906.3905,E,1,04,3.7,466.9,M,48.0,M,,0000*57
$GPRMC,140419.000,A,4844.6867,N,00906.3905,E,0.00,,040708,,,A*71
$GPVTG,,T,,M,0.00,N,0.0,K,A*13
$GPGGA,140420.000,4844.6867,N,00906.3905,E,1,04,3.7,466.9,M,48.0,M,,0000*5D
$GPRMC,140420.000,A,4844.6867,N,00906.3905,E,0.00,,040708,,,A*7B
$GPVTG,,T,,M,0.00,N,0.0,K,A*13
$GPGGA,140421.000,4844.6867,N,00906.3906,E,1,04,3.7,466.8,M,48.0,M,,0000*5E
$GPGSA,A,3,15,26,09,17,,,,,,,,,3.9,3.7,1.0*32
$GPGSV,3,1,10,15,72,186,42,26,59,152,42,09,41,281,46,28,38,054,27*7A
$GPGSV,3,2,10,17,33,107,35,18,30,290,31,12,14,220,37,22,11,325,21*79
$GPGSV,3,3,10,08,02,086,,05,00,227,23*7F
$GPRMC,140421.000,A,4844.6867,N,00906.3906,E,0.00,,040708,,,A*79
$GPVTG,,T,,M,0.00,N,0.0,K,A*13
$GPGGA,140422.000,4844.6868,N,00906.3906,E,1,04,3.7,466.8,M,48.0,M,,0000*52
$GPRMC,140422.000,A,4844.6868,N,00906.3906,E,0.00,,040708,,,A*75
$GPVTG,,T,,M,0.00,N,0.0,K,A*13
$GPGGA,140423.000,4844.6868,N,00906.3906,E,1,04,3.7,466.7,M,48.0,M,,0000*5C
$GPRMC,140423.000,A,4844.6868,N,00906.3906,E,0.00,,040708,,,A*74
$GPVTG,,T,,M,0.00,N,0.0,K,A*13
$GPGGA,140424.000,4844.6869,N,00906.3908,E,1,04,3.7,466.7,M,48.0,M,,0000*54
$GPRMC,140424.000,A,4844.6869,N,00906.3908,E,0.00,,040708,,,A*7C
$GPVTG,,T,,M,0.00,N,0.0,K,A*13
$GPGGA,140425.000,4844.6869,N,00906.3908,E,1,04,3.7,466.6,M,48.0,M,,0000*54
$GPRMC,140425.000,A,4844.6869,N,00906.3908,E,0.00,,040708,,,A*7D
$GPVTG,,T,,M,0.00,N,0.0,K,A*13
$GPGGA,140426.000,4844.6869,N,00906.3908,E,1,04,3.7,466.6,M,48.0,M,,0000*57
$GPGSA,A,3,15,26,09,17,,,,,,,,,3.8,3.7,1.0*33
$GPGSV,3,1,10,15,72,186,36,26,59,152,41,09,41,281,46,28,38,054,22*7F
$GPGSV,3,2,10,17,33,107,32,18,30,290,27,12,14,220,25,22,11,325,20*7B
$GPGSV,3,3,10,08,02,086,,05,00,227,*7E
$GPRMC,140426.000,A,4844.6869,N,00906.3908,E,0.00,,040708,,,A*7E
$GPVTG,,T,,M,0.00,N,0.0,K,A*13
$GPGGA,140427.000,4844.6869,N,00906.3908,E,1,04,3.7,466.6,M,48.0,M,,0000*56
$GPRMC,140427.000,A,4844.6869,N,00906.3908,E,0.00,,040708,,,A*7F
$GPVTG,,T,,M,0.00,N,0.0,K,A*13
$GPGGA,140428.000,4844.6869,N,00906.3908,E,1,04,3.7,466.7,M,48.0,M,,0000*58
$GPRMC,140428.000,A,4844.6869,N,00906.3908,E,0.00,,040708,,,A*70
$GPVTG,,T,,M,0.00,N,0.0,K,A*13
$GPGGA,140429.000,4844.6869,N,00906.3907,E,1,04,3.7,466.8,M,48.0,M,,0000*59
$GPRMC,140429.000,A,4844.6869,N,00906.3907,E,0.00,,040708,,,A*7E
$GPVTG,,T,,M,0.00,N,0.0,K,A*13
$GPGGA,140430.000,4844.6868,N,00906.3907,E,1,04,3.7,467.0,M,48.0,M,,0000*59
$GPRMC,140430.000,A,4844.6868,N,00906.3907,E,0.00,,040708,,,A*77
$GPVTG,,T,,M,0.00,N,0.0,K,A*13
$GPGGA,140431.000,4844.6869,N,00906.3908,E,1,04,3.7,467.2,M,48.0,M,,0000*54
$GPGSA,A,3,15,26,09,17,,,,,,,,,3.8,3.7,1.0*33
$GPGSV,3,1,10,15,72,186,36,26,59,152,41,09,41,281,47,28,38,054,24*78
$GPGSV,3,2,10,17,33,107,35,18,30,290,25,12,14,220,31,22,11,325,17*7F
$GPGSV,3,3,10,08,02,086,,05,00,227,18*77
$GPRMC,140431.000,A,4844.6869,N,00906.3908,E,0.00,,040708,,,A*78
$GPVTG,,T,,M,0.00,N,0.0,K,A*13
$GPGGA,140432.000,4844.6869,N,00906.3907,E,1,04,3.7,467.4,M,48.0,M,,0000*5E
$GPRMC,140432.000,A,4844.6869,N,00906.3907,E,0.00,,040708,,,A*74
$GPVTG,,T,,M,0.00,N,0.0,K,A*13
$GPGGA,140433.000,4844.6869,N,00906.3909,E,1,04,3.7,467.6,M,48.0,M,,0000*53
$GPRMC,140433.000,A,4844.6869,N,00906.3909,E,0.00,,040708,,,A*7B
$GPVTG,,T,,M,0.00,N,0.0,K,A*13
$GPGGA,140434.000,4844.6871,N,00906.3911,E,1,04,3.7,467.7,M,48.0,M,,0000*55
$GPRMC,140434.000,A,4844.6871,N,00906.3911,E,0.00,,040708,,,A*7C
$GPVTG,,T,,M,0.00,N,0.0,K,A*13
$GPGGA,140435.000,4844.6873,N,00906.3912,E,1,04,3.7,468.0,M,48.0,M,,0000*5D
$GPRMC,140435.000,A,4844.6873,N,00906.3912,E,0.00,,040708,,,A*7C
$GPVTG,,T,,M,0.00,N,0.0,K,A*13
$GPGGA,140436.000,4844.6874,N,00906.3912,E,1,04,3.7,468.3,M,48.0,M,,0000*5A
$GPGSA,A,3,15,26,09,17,,,,,,,,,3.8,3.7,1.0*33
$GPGSV,3,1,11,15,72,186,43,26,59,152,42,09,41,281,46,28,38,054,23*7E
$GPGSV,3,2,11,17,33,107,47,18,30,290,25,12,14,220,31,22,11,325,17*7B
$GPGSV,3,3,11,08,02,086,,05,00,227,,37,32,162,28*45
$GPRMC,140436.000,A,4844.6874,N,00906.3912,E,0.00,,040708,,,A*78
$GPVTG,,T,,M,0.00,N,0.0,K,A*13
$GPGGA,140437.000,4844.6874,N,00906.3912,E,1,04,3.7,468.5,M,48.0,M,,0000*5D
$GPRMC,140437.000,A,4844.6874,N,00906.3912,E,0.00,,040708,,,A*79
$GPVTG,,T,,M,0.00,N,0.0,K,A*13
$GPGGA,140438.000,4844.6875,N,00906.3911,E,1,04,3.7,468.6,M,48.0,M,,0000*53
$GPRMC,140438.000,A,4844.6875,N,00906.3911,E,0.00,,040708,,,A*74
$GPVTG,,T,,M,0.00,N,0.0,K,A*13
$GPGGA,140439.000,4844.6876,N,00906.3911,E,1,04,3.7,468.8,M,48.0,M,,0000*5F
$GPRMC,140439.000,A,4844.6876,N,00906.3911,E,0.00,,040708,,,A*76
$GPVTG,,T,,M,0.00,N,0.0,K,A*13
$GPGGA,140440.000,4844.6877,N,00906.3912,E,1,04,3.7,468.8,M,48.0,M,,0000*53
$GPRMC,140440.000,A,4844.6877,N,00906.3912,E,0.00,,040708,,,A*7A
$GPVTG,,T,,M,0.00,N,0.0,K,A*13
$GPGGA,140441.000,4844.6878,N,00906.3912,E,1,04,3.7,468.8,M,48.0,M,,0000*5D
$GPGSA,A,3,15,26,09,17,,,,,,,,,3.8,3.7,1.0*33
$GPGSV,3,1,10,15,72,186,38,26,59,152,33,09,41,281,46,28,38,054,23*75
$GPGSV,3,2,10,17,33,107,32,18,30,290,21,12,14,220,36,22,11,325,19*75
$GPGSV,3,3,10,08,02,086,,05,00,227,*7E
$GPRMC,140441.000,A,4844.6878,N,00906.3912,E,0.00,,040708,,,A*74
$GPVTG,,T,,M,0.00,N,0.0,K,A*13
$GPGGA,140442.000,4844.6877,N,00906.3913,E,1,04,3.7,468.9,M,48.0,M,,0000*51
$GPRMC,140442.000,A,4844.6877,N,00906.3913,E,0.00,,040708,,,A*79
$GPVTG,,T,,M,0.00,N,0.0,K,A*13
$GPGGA,140443.000,4844.6874,N,00906.3912,E,1,04,3.7,468.7,M,48.0,M,,0000*5C
$GPRMC,140443.000,A,4844.6874,N,00906.3912,E,0.00,,040708,,,A*7A
$GPVTG,,T,,M,0.00,N,0.0,K,A*13
$GPGGA,140444.000,4844.6873,N,00906.3910,E,1,04,3.7,468.6,M,48.0,M,,0000*5F
$GPRMC,140444.000,A,4844.6873,N,00906.3910,E,0.00,,040708,,,A*78
$GPVTG,,T,,M,0.00,N,0.0,K,A*13
$GPGGA,140445.000,4844.6873,N,00906.3908,E,1,04,3.7,468.6,M,48.0,M,,0000*57
$GPRMC,140445.000,A,4844.6873,N,00906.3908,E,0.00,,040708,,,A*70
$GPVTG,,T,,M,0.00,N,0.0,K,A*13
$GPGGA,140446.000,4844.6873,N,00906.3908,E,1,04,3.7,468.5,M,48.0,M,,0000*57
$GPGSA,A,3,15,26,09,17,,,,,,,,,3.8,3.7,1.0*33
$GPGSV,3,1,10,15,72,186,34,26,59,152,45,09,41,281,46,28,38,054,29*72
$GPGSV,3,2,10,17,33,107,42,18,30,290,25,12,14,220,34,22,11,325,14*79
$GPGSV,3,3,10,08,02,086,,05,00,227,*7E
$GPRMC,140446.000,A,4844.6873,N,00906.3908,E,0.00,,040708,,,A*73
$GPVTG,,T,,M,0.00,N,0.0,K,A*13
$GPGGA,140447.000,4844.6873,N,00906.3909,E,1,04,3.7,468.5,M,48.0,M,,0000*57
$GPRMC,140447.000,A,4844.6873,N,00906.3909,E,0.00,,040708,,,A*73
$GPVTG,,T,,M,0.00,N,0.0,K,A*13
$GPGGA,140448.000,4844.6873,N,00906.3911,E,1,04,3.7,468.4,M,48.0,M,,0000*50
$GPRMC,140448.000,A,4844.6873,N,00906.3911,E,0.00,,040708,,,A*75
$GPVTG,,T,,M,0.00,N,0.0,K,A*13
$GPGGA,140449.000,4844.6873,N,00906.3911,E,1,04,3.7,468.4,M,48.0,M,,0000*51
$GPRMC,140449.000,A,4844.6873,N,00906.3911,E,0.00,,040708,,,A*74
$GPVTG,,T,,M,0.00,N,0.0,K,A*13
$GPGGA,140450.000,4844.6873,N,00906.3911,E,1,04,3.6,468.4,M,48.0,M,,0000*58
$GPRMC,140450.000,A,4844.6873,N,00906.3911,E,0.00,,040708,,,A*7C
$GPVTG,,T,,M,0.00,N,0.0,K,A*13
$GPGGA,140451.000,4844.6873,N,00906.3910,E,1,04,3.6,468.4,M,48.0,M,,0000*58
$GPGSA,A,3,15,26,09,17,,,,,,,,,3.8,3.6,1.0*32
$GPGSV,3,1,10,15,72,185,42,26,59,152,40,09,41,282,45,28,38,054,22*7E
$GPGSV,3,2,10,17,33,107,42,18,30,289,25,12,14,220,36,22,11,325,15*72
$GPGSV,3,3,10,08,01,086,,05,00,227,*7D
$GPRMC,140451.000,A,4844.6873,N,00906.3910,E,0.00,,040708,,,A*7C
$GPVTG,,T,,M,0.00,N,0.0,K,A*13
$GPGGA,140452.000,4844.6873,N,00906.3908,E,1,04,3.6,468.6,M,48.0,M,,0000*50
$GPRMC,140452.000,A,4844.6873,N,00906.3908,E,0.00,,040708,,,A*76
$GPVTG,,T,,M,0.00,N,0.0,K,A*13
$GPGGA,140453.000,4844.6871,N,00906.3910,E,1,04,3.6,469.1,M,48.0,M,,0000*5C
$GPRMC,140453.000,A,4844.6871,N,00906.3910,E,1.81,163.01,040708,,,A*6F
$GPVTG,163.01,T,,M,1.81,N,3.4,K,A*07
$GPGGA,140454.000,4844.6867,N,00906.3913,E,1,04,3.6,469.4,M,48.0,M,,0000*5A
$GPRMC,140454.000,A,4844.6867,N,00906.3913,E,2.21,175.13,040708,,,A*61
$GPVTG,175.13,T,,M,2.21,N,4.1,K,A*08
$GPGGA,140455.000,4844.6861,N,00906.3912,E,1,04,3.6,469.6,M,48.0,M,,0000*5E
$GPRMC,140455.000,A,4844.6861,N,00906.3912,E,2.26,202.08,040708,,,A*69
$GPVTG,202.08,T,,M,2.26,N,4.2,K,A*05
$GPGGA,140456.000,4844.6854,N,00906.3906,E,1,04,3.6,469.6,M,48.0,M,,0000*5E
$GPGSA,A,3,15,26,09,17,,,,,,,,,3.8,3.6,1.0*32
$GPGSV,3,1,11,15,72,185,43,26,59,152,41,09,41,282,45,28,38,054,33*7F
$GPGSV,3,2,11,17,33,107,39,18,30,289,43,12,14,220,36,22,11,325,17*7D
$GPGSV,3,3,11,08,01,086,24,05,00,227,,37,32,162,21*49
$GPRMC,140456.000,A,4844.6854,N,00906.3906,E,2.98,208.19,040708,,,A*66
$GPVTG,208.19,T,,M,2.98,N,5.5,K,A*0C
$GPGGA,140457.000,4844.6846,N,00906.3900,E,1,04,3.6,469.7,M,48.0,M,,0000*5B
$GPRMC,140457.000,A,4844.6846,N,00906.3900,E,3.57,207.65,040708,,,A*64
$GPVTG,207.65,T,,M,3.57,N,6.6,K,A*0A
$GPGGA,140458.000,4844.6838,N,00906.3892,E,1,04,3.6,469.8,M,48.0,M,,0000*58
$GPRMC,140458.000,A,4844.6838,N,00906.3892,E,3.83,213.17,040708,,,A*61
$GPVTG,213.17,T,,M,3.83,N,7.1,K,A*05
$GPGGA,140459.000,4844.6830,N,00906.3885,E,1,04,3.6,469.9,M,48.0,M,,0000*56
$GPRMC,140459.000,A,4844.6830,N,00906.3885,E,3.86,205.17,040708,,,A*6C
$GPVTG,205.17,T,,M,3.86,N,7.1,K,A*07
$GPGGA,140500.000,4844.6823,N,00906.3882,E,1,04,3.6,470.2,M,48.0,M,,0000*5D
$GPRMC,140500.000,A,4844.6823,N,00906.3882,E,3.62,187.24,040708,,,A*67
$GPVTG,187.24,T,,M,3.62,N,6.7,K,A*03
$GPGGA,140501.000,4844.6811,N,00906.3882,E,1,04,3.6,470.3,M,48.0,M,,0000*5C
$GPGSA,A,3,15,26,09,17,,,,,,,,,3.8,3.6,1.0*32
$GPGSV,3,1,10,15,72,185,39,26,59,152,34,09,41,282,39,28,38,054,39*70
$GPGSV,3,2,10,17,33,107,33,18,30,289,42,12,14,220,37,22,11,325,24*76
$GPGSV,3,3,10,08,01,086,,05,00,227,13*7F
$GPRMC,140501.000,A,4844.6811,N,00906.3882,E,4.27,178.46,040708,,,A*65
$GPVTG,178.46,T,,M,4.27,N,7.9,K,A*0E
$GPGGA,140502.000,4844.6799,N,00906.3881,E,1,04,3.6,470.7,M,48.0,M,,0000*57
$GPRMC,140502.000,A,4844.6799,N,00906.3881,E,4.78,185.86,040708,,,A*6E
$GPVTG,185.86,T,,M,4.78,N,8.8,K,A*04
$GPGGA,140503.000,4844.6791,N,00906.3875,E,1,04,3.6,470.7,M,48.0,M,,0000*55
$GPRMC,140503.000,A,4844.6791,N,00906.3875,E,4.60,220.17,040708,,,A*61
$GPVTG,220.17,T,,M,4.60,N,8.5,K,A*04
$GPGGA,140504.000,4844.6784,N,00906.3859,E,1,04,3.6,470.7,M,48.0,M,,0000*58
$GPRMC,140504.000,A,4844.6784,N,00906.3859,E,5.05,245.23,040708,,,A*6A
$GPVTG,245.23,T,,M,5.05,N,9.4,K,A*02
$GPGGA,140505.000,4844.6782,N,00906.3839,E,1,04,3.6,470.9,M,48.0,M,,0000*57
$GPRMC,140505.000,A,4844.6782,N,00906.3839,E,5.41,256.22,040708,,,A*68
$GPVTG,256.22,T,,M,5.41,N,10.0,K,A*3D
$GPGGA,140506.000,4844.6780,N,00906.3818,E,1,04,3.6,470.8,M,48.0,M,,0000*54
$GPGSA,A,3,15,26,09,17,,,,,,,,,3.7,3.6,1.0*3D
$GPGSV,3,1,10,15,72,185,42,26,59,152,43,09,41,282,37,28,38,054,32*79
$GPGSV,3,2,10,17,33,107,41,18,30,289,33,12,14,220,37,22,11,325,35*75
$GPGSV,3,3,10,08,01,086,,05,00,227,*7D
$GPRMC,140506.000,A,4844.6780,N,00906.3818,E,5.22,261.23,040708,,,A*6A
$GPVTG,261.23,T,,M,5.22,N,9.7,K,A*02
$GPGGA,140507.000,4844.6778,N,00906.3800,E,1,04,3.6,470.7,M,48.0,M,,0000*54
$GPRMC,140507.000,A,4844.6778,N,00906.3800,E,4.46,261.17,040708,,,A*61
$GPVTG,261.17,T,,M,4.46,N,8.3,K,A*03
$GPGGA,140508.000,4844.6776,N,00906.3787,E,1,04,3.6,470.6,M,48.0,M,,0000*54
$GPRMC,140508.000,A,4844.6776,N,00906.3787,E,3.37,253.81,040708,,,A*6F
$GPVTG,253.81,T,,M,3.37,N,6.2,K,A*03
$GPGGA,140509.000,4844.6777,N,00906.3778,E,1,04,3.6,470.7,M,48.0,M,,0000*55
$GPRMC,140509.000,A,4844.6777,N,00906.3778,E,2.57,252.08,040708,,,A*68
$GPVTG,252.08,T,,M,2.57,N,4.8,K,A*0C
$GPGGA,140510.000,4844.6774,N,00906.3768,E,1,04,3.6,470.5,M,48.0,M,,0000*5D
$GPRMC,140510.000,A,4844.6774,N,00906.3768,E,2.40,254.77,040708,,,A*6A
$GPVTG,254.77,T,,M,2.40,N,4.4,K,A*08
$GPGGA,140511.000,4844.6771,N,00906.3757,E,1,04,3.6,470.3,M,48.0,M,,0000*53
$GPGSA,A,3,15,26,09,17,,,,,,,,,3.7,3.6,1.0*3D
$GPGSV,3,1,10,15,72,185,42,26,59,152,44,09,41,282,42,28,38,054,32*7C
$GPGSV,3,2,10,17,33,107,41,18,30,289,42,12,14,220,31,22,11,325,37*77
$GPGSV,3,3,10,08,01,086,,05,00,227,14*78
$GPRMC,140511.000,A,4844.6771,N,00906.3757,E,2.73,256.72,040708,,,A*65
$GPVTG,256.72,T,,M,2.73,N,5.1,K,A*0B
$GPGGA,140512.000,4844.6768,N,00906.3744,E,1,04,3.6,470.1,M,48.0,M,,0000*58
$GPRMC,140512.000,A,4844.6768,N,00906.3744,E,3.07,250.91,040708,,,A*65
$GPVTG,250.91,T,,M,3.07,N,5.7,K,A*04
$GPGGA,140513.000,4844.6765,N,00906.3732,E,1,04,3.6,470.0,M,48.0,M,,0000*54
$GPRMC,140513.000,A,4844.6765,N,00906.3732,E,3.30,242.95,040708,,,A*6B
$GPVTG,242.95,T,,M,3.30,N,6.1,K,A*02
$GPGGA,140514.000,4844.6762,N,00906.3720,E,1,04,3.6,470.0,M,48.0,M,,0000*57
$GPRMC,140514.000,A,4844.6762,N,00906.3720,E,3.40,245.61,040708,,,A*63
$GPVTG,245.61,T,,M,3.40,N,6.3,K,A*0B
$GPGGA,140515.000,4844.6759,N,00906.3709,E,1,04,3.6,470.0,M,48.0,M,,0000*55
$GPRMC,140515.000,A,4844.6759,N,00906.3709,E,3.14,241.91,040708,,,A*6B
$GPVTG,241.91,T,,M,3.14,N,5.8,K,A*09
$GPGGA,140516.000,4844.6756,N,00906.3698,E,1,04,3.6,469.9,M,48.0,M,,0000*51
$GPGSA,A,3,15,26,09,17,,,,,,,,,3.7,3.6,1.0*3D
$GPGSV,3,1,10,15,72,185,43,26,59,152,44,09,41,282,43,28,38,054,38*76
$GPGSV,3,2,10,17,33,107,41,18,30,289,42,12,14,220,34,22,11,325,37*72
$GPGSV,3,3,10,08,01,086,,05,00,227,*7D
$GPRMC,140516.000,A,4844.6756,N,00906.3698,E,2.81,246.42,040708,,,A*6A
$GPVTG,246.42,T,,M,2.81,N,5.2,K,A*07
$GPGGA,140517.000,4844.6754,N,00906.3689,E,1,04,3.6,469.9,M,48.0,M,,0000*52
$GPRMC,140517.000,A,4844.6754,N,00906.3689,E,2.64,249.74,040708,,,A*68
$GPVTG,249.74,T,,M,2.64,N,4.9,K,A*0C
$GPGGA,140518.000,4844.6753,N,00906.3681,E,1,04,3.6,469.9,M,48.0,M,,0000*52
$GPRMC,140518.000,A,4844.6753,N,00906.3681,E,0.00,249.74,040708,,,A*68
$GPVTG,249.74,T,,M,0.00,N,0.0,K,A*01
$GPGGA,140519.000,4844.6752,N,00906.3677,E,1,04,3.6,469.8,M,48.0,M,,0000*5A
$GPRMC,140519.000,A,4844.6752,N,00906.3677,E,0.00,249.74,040708,,,A*61
$GPVTG,249.74,T,,M,0.00,N,0.0,K,A*01
$GPGGA,140520.000,4844.6753,N,00906.3677,E,1,04,3.6,469.8,M,48.0,M,,0000*51
$GPRMC,140520.000,A,4844.6753,N,00906.3677,E,0.00,249.74,040708,,,A*6A
$GPVTG,249.74,T,,M,0.00,N,0.0,K,A*01
$GPGGA,140521.000,4844.6753,N,00906.3677,E,1,04,3.6,469.8,M,48.0,M,,0000*50
$GPGSA,A,3,15,26,09,17,,,,,,,,,3.7,3.6,1.0*3D
$GPGSV,3,1,10,15,71,185,42,26,58,152,38,09,42,282,42,28,38,054,40*73
$GPGSV,3,2,10,17,34,107,41,18,30,289,43,12,14,220,42,22,11,324,37*74
$GPGSV,3,3,10,08,01,086,26,05,01,227,10*79
$GPRMC,140521.000,A,4844.6753,N,00906.3677,E,0.00,249.74,040708,,,A*6B
$GPVTG,249.74,T,,M,0.00,N,0.0,K,A*01
$GPGGA,140522.000,4844.6753,N,00906.3678,E,1,04,3.6,469.9,M,48.0,M,,0000*5D
$GPRMC,140522.000,A,4844.6753,N,00906.3678,E,0.00,249.74,040708,,,A*67
$GPVTG,249.74,T,,M,0.00,N,0.0,K,A*01
$GPGGA,140523.000,4844.6753,N,00906.3678,E,1,04,3.6,469.9,M,48.0,M,,0000*5C
$GPRMC,140523.000,A,4844.6753,N,00906.3678,E,0.00,249.74,040708,,,A*66
$GPVTG,249.74,T,,M,0.00,N,0.0,K,A*01
$GPGGA,140524.000,4844.6753,N,00906.3678,E,1,04,3.6,469.9,M,48.0,M,,0000*5B
$GPRMC,140524.000,A,4844.6753,N,00906.3678,E,0.00,249.74,040708,,,A*61
$GPVTG,249.74,T,,M,0.00,N,0.0,K,A*01
$GPGGA,140525.000,4844.6754,N,00906.3679,E,1,04,3.6,469.9,M,48.0,M,,0000*5C
$GPRMC,140525.000,A,4844.6754,N,00906.3679,E,0.00,249.74,040708,,,A*66
$GPVTG,249.74,T,,M,0.00,N,0.0,K,A*01
$GPGGA,140526.000,4844.6756,N,00906.3680,E,1,04,3.6,470.0,M,48.0,M,,0000*5A
$GPGSA,A,3,15,26,09,17,,,,,,,,,3.7,3.6,1.0*3D
$GPGSV,3,1,10,15,71,185,42,26,58,152,38,09,42,282,44,28,38,054,41*74
$GPGSV,3,2,10,17,34,107,33,18,30,289,42,12,14,220,42,22,11,324,37*70
$GPGSV,3,3,10,08,01,086,,05,01,227,11*7C
$GPRMC,140526.000,A,4844.6756,N,00906.3680,E,0.00,249.74,040708,,,A*61
$GPVTG,249.74,T,,M,0.00,N,0.0,K,A*01
$GPGGA,140527.000,4844.6757,N,00906.3682,E,1,04,3.6,470.1,M,48.0,M,,0000*59
$GPRMC,140527.000,A,4844.6757,N,00906.3682,E,0.00,249.74,040708,,,A*63
$GPVTG,249.74,T,,M,0.00,N,0.0,K,A*01
$GPGGA,140528.000,4844.6759,N,00906.3683,E,1,04,3.6,470.2,M,48.0,M,,0000*5A
$GPRMC,140528.000,A,4844.6759,N,00906.3683,E,0.00,249.74,040708,,,A*63
$GPVTG,249.74,T,,M,0.00,N,0.0,K,A*01
$GPGGA,140529.000,4844.6760,N,00906.3684,E,1,04,3.6,470.3,M,48.0,M,,0000*57
$GPRMC,140529.000,A,4844.6760,N,00906.3684,E,0.00,249.74,040708,,,A*6F
$GPVTG,249.74,T,,M,0.00,N,0.0,K,A*01
$GPGGA,140530.000,4844.6761,N,00906.3685,E,1,04,3.6,470.5,M,48.0,M,,0000*59
$GPRMC,140530.000,A,4844.6761,N,00906.3685,E,0.00,249.74,040708,,,A*67
$GPVTG,249.74,T,,M,0.00,N,0.0,K,A*01
$GPGGA,140531.000,4844.6762,N,00906.3686,E,1,04,3.6,470.6,M,48.0,M,,0000*5B
$GPGSA,A,3,15,26,09,17,,,,,,,,,3.7,3.6,1.0*3D
$GPGSV,3,1,10,15,71,185,42,26,58,152,39,09,42,282,44,28,38,054,41*75
$GPGSV,3,2,10,17,34,107,40,18,30,289,42,12,14,220,38,22,11,324,37*79
$GPGSV,3,3,10,08,01,086,,05,01,227,13*7E
$GPRMC,140531.000,A,4844.6762,N,00906.3686,E,0.00,249.74,040708,,,A*66
$GPVTG,249.74,T,,M,0.00,N,0.0,K,A*01
$GPGGA,140532.000,4844.6763,N,00906.3688,E,1,04,3.6,470.8,M,48.0,M,,0000*59
$GPRMC,140532.000,A,4844.6763,N,00906.3688,E,0.00,249.74,040708,,,A*6A
$GPVTG,249.74,T,,M,0.00,N,0.0,K,A*01
$GPGGA,140533.000,4844.6764,N,00906.3689,E,1,04,3.5,470.9,M,48.0,M,,0000*5C
$GPRMC,140533.000,A,4844.6764,N,00906.3689,E,0.00,249.74,040708,,,A*6D
$GPVTG,249.74,T,,M,0.00,N,0.0,K,A*01
$GPGGA,140534.000,4844.6740,N,00906.3676,E,1,08,1.0,466.8,M,48.0,M,,0000*50
$GPRMC,140534.000,A,4844.6740,N,00906.3676,E,0.00,249.74,040708,,,A*6C
$GPVTG,249.74,T,,M,0.00,N,0.0,K,A*01
$GPGGA,140535.000,4844.6735,N,00906.3674,E,1,08,1.0,465.8,M,48.0,M,,0000*52
$GPRMC,140535.000,A,4844.6735,N,00906.3674,E,0.00,249.74,040708,,,A*6D
$GPVTG,249.74,T,,M,0.00,N,0.0,K,A*01
$GPGGA,140536.000,4844.6733,N,00906.3673,E,1,08,1.0,465.3,M,48.0,M,,0000*5B
$GPGSA,A,3,15,26,09,17,18,12,28,22,,,,,1.9,1.0,1.6*33
$GPGSV,3,1,10,15,71,185,43,26,58,152,41,09,42,282,44,28,38,054,42*78
$GPGSV,3,2,10,17,34,107,41,18,30,289,41,12,14,220,38,22,12,324,37*78
$GPGSV,3,3,10,08,01,086,,05,01,227,*7C
$GPRMC,140536.000,A,4844.6733,N,00906.3673,E,0.00,249.74,040708,,,A*6F
$GPVTG,249.74,T,,M,0.00,N,0.0,K,A*01
$GPGGA,140537.000,4844.6732,N,00906.3673,E,1,08,1.0,465.0,M,48.0,M,,0000*58
$GPRMC,140537.000,A,4844.6732,N,00906.3673,E,0.00,249.74,040708,,,A*6F
$GPVTG,249.74,T,,M,0.00,N,0.0,K,A*01
$GPGGA,140538.000,4844.6731,N,00906.3673,E,1,08,1.0,464.8,M,48.0,M,,0000*5D
$GPRMC,140538.000,A,4844.6731,N,00906.3673,E,0.00,249.74,040708,,,A*63
$GPVTG,249.74,T,,M,0.00,N,0.0,K,A*01
$GPGGA,140539.000,4844.6731,N,00906.3673,E,1,08,1.0,464.6,M,48.0,M,,0000*52
$GPRMC,140539.000,A,4844.6731,N,00906.3673,E,0.00,249.74,040708,,,A*62
$GPVTG,249.74,T,,M,0.00,N,0.0,K,A*01
$GPGGA,140540.000,4844.6730,N,00906.3674,E,1,08,1.0,464.4,M,48.0,M,,0000*58
$GPRMC,140540.000,A,4844.6730,N,00906.3674,E,0.00,249.74,040708,,,A*6A
$GPVTG,249.74,T,,M,0.00,N,0.0,K,A*01
$GPGGA,140541.000,4844.6730,N,00906.3674,E,1,08,1.0,464.2,M,48.0,M,,0000*5F
$GPGSA,A,3,15,26,09,17,18,12,28,22,,,,,1.9,1.0,1.6*33
$GPGSV,3,1,10,15,71,185,43,26,58,152,41,09,42,282,44,28,38,054,42*78
$GPGSV,3,2,10,17,34,107,41,18,30,289,41,12,14,220,37,22,12,324,37*77
$GPGSV,3,3,10,08,01,086,,05,01,227,*7C
$GPRMC,140541.000,A,4844.6730,N,00906.3674,E,0.00,249.74,040708,,,A*6B
$GPVTG,249.74,T,,M,0.00,N,0.0,K,A*01
$GPGGA,140542.000,4844.6729,N,00906.3674,E,1,08,1.0,464.1,M,48.0,M,,0000*57
$GPRMC,140542.000,A,4844.6729,N,00906.3674,E,0.00,249.74,040708,,,A*60
$GPVTG,249.74,T,,M,0.00,N,0.0,K,A*01
$GPGGA,140543.000,4844.6729,N,00906.3674,E,1,08,1.0,463.9,M,48.0,M,,0000*59
$GPRMC,140543.000,A,4844.6729,N,00906.3674,E,0.00,249.74,040708,,,A*61
$GPVTG,249.74,T,,M,0.00,N,0.0,K,A*01
$GPGGA,140544.000,4844.6729,N,00906.3674,E,1,08,1.0,463.8,M,48.0,M,,0000*5F
$GPRMC,140544.000,A,4844.6729,N,00906.3674,E,0.00,249.74,040708,,,A*66
$GPVTG,249.74,T,,M,0.00,N,0.0,K,A*01
$GPGGA,140545.000,4844.6729,N,00906.3674,E,1,08,1.0,463.7,M,48.0,M,,0000*51
$GPRMC,140545.000,A,4844.6729,N,00906.3674,E,0.00,249.74,040708,,,A*67
$GPVTG,249.74,T,,M,0.00,N,0.0,K,A*01
$GPGGA,140546.000,4844.6729,N,00906.3674,E,1,08,1.0,463.6,M,48.0,M,,0000*53
$GPGSA,A,3,15,26,09,17,18,12,28,22,,,,,1.9,1.0,1.6*33
$GPGSV,3,1,10,15,71,185,43,26,58,152,41,09,42,282,44,28,38,054,42*78
$GPGSV,3,2,10,17,34,107,42,18,30,289,41,12,14,220,37,22,12,324,37*74
$GPGSV,3,3,10,08,01,086,,05,01,227,*7C
$GPRMC,140546.000,A,4844.6729,N,00906.3674,E,0.00,249.74,040708,,,A*64
$GPVTG,249.74,T,,M,0.00,N,0.0,K,A*01
$GPGGA,140547.000,4844.6729,N,00906.3675,E,1,08,1.0,463.6,M,48.0,M,,0000*53
$GPRMC,140547.000,A,4844.6729,N,00906.3675,E,0.00,249.74,040708,,,A*64
$GPVTG,249.74,T,,M,0.00,N,0.0,K,A*01
$GPGGA,140548.000,4844.6730,N,00906.3676,E,1,08,1.0,463.5,M,48.0,M,,0000*54
$GPRMC,140548.000,A,4844.6730,N,00906.3676,E,0.00,249.74,040708,,,A*60
$GPVTG,249.74,T,,M,0.00,N,0.0,K,A*01
$GPGGA,140549.000,4844.6730,N,00906.3677,E,1,08,1.0,463.5,M,48.0,M,,0000*54
$GPRMC,140549.000,A,4844.6730,N,00906.3677,E,0.00,249.74,040708,,,A*60
$GPVTG,249.74,T,,M,0.00,N,0.0,K,A*01
$GPGGA,140550.000,4844.6730,N,00906.3677,E,1,08,1.0,463.4,M,48.0,M,,0000*5D
$GPRMC,140550.000,A,4844.6730,N,00906.3677,E,0.00,249.74,040708,,,A*68
$GPVTG,249.74,T,,M,0.00,N,0.0,K,A*01
$GPGGA,140551.000,4844.6730,N,00906.3678,E,1,08,1.0,463.3,M,48.0,M,,0000*54
$GPGSA,A,3,15,26,09,17,18,12,28,22,,,,,1.9,1.0,1.6*33
$GPGSV,3,1,10,15,71,185,42,26,58,152,41,09,42,282,43,28,38,054,43*7F
$GPGSV,3,2,10,17,34,106,42,18,30,289,42,12,14,220,31,22,12,324,37*70
$GPGSV,3,3,10,08,01,086,,05,01,227,18*75
$GPRMC,140551.000,A,4844.6730,N,00906.3678,E,0.00,249.74,040708,,,A*66
$GPVTG,249.74,T,,M,0.00,N,0.0,K,A*01
$GPGGA,140552.000,4844.6730,N,00906.3678,E,1,08,1.0,463.3,M,48.0,M,,0000*57
$GPRMC,140552.000,A,4844.6730,N,00906.3678,E,0.00,249.74,040708,,,A*65
$GPVTG,249.74,T,,M,0.00,N,0.0,K,A*01
$GPGGA,140553.000,4844.6730,N,00906.3678,E,1,08,1.0,463.2,M,48.0,M,,0000*57
$GPRMC,140553.000,A,4844.6730,N,00906.3678,E,0.00,249.74,040708,,,A*64
$GPVTG,249.74,T,,M,0.00,N,0.0,K,A*01
$GPGGA,140554.000,4844.6730,N,00906.3678,E,1,08,1.0,463.2,M,48.0,M,,0000*50
$GPRMC,140554.000,A,4844.6730,N,00906.3678,E,0.00,249.74,040708,,,A*63
$GPVTG,249.74,T,,M,0.00,N,0.0,K,A*01
$GPGGA,140555.000,4844.6730,N,00906.3678,E,1,08,1.0,463.1,M,48.0,M,,0000*52
$GPRMC,140555.000,A,4844.6730,N,00906.3678,E,0.00,249.74,040708,,,A*62
$GPVTG,249.74,T,,M,0.00,N,0.0,K,A*01
$GPGGA,140556.000,4844.6730,N,00906.3679,E,1,08,1.0,463.1,M,48.0,M,,0000*50
$GPGSA,A,3,15,26,09,17,18,12,28,22,,,,,1.9,1.0,1.6*33
$GPGSV,3,1,10,15,71,185,42,26,58,152,40,09,42,282,42,28,38,054,44*78
$GPGSV,3,2,10,17,34,106,42,18,30,289,42,12,14,220,32,22,12,324,38*7C
$GPGSV,3,3,10,08,01,086,26,05,01,227,*78
$GPRMC,140556.000,A,4844.6730,N,00906.3679,E,0.00,249.74,040708,,,A*60
$GPVTG,249.74,T,,M,0.00,N,0.0,K,A*01
$GPGGA,140557.000,4844.6729,N,00906.3678,E,1,08,1.0,463.0,M,48.0,M,,0000*59
$GPRMC,140557.000,A,4844.6729,N,00906.3678,E,0.00,249.74,040708,,,A*68
$GPVTG,249.74,T,,M,0.00,N,0.0,K,A*01
$GPGGA,140558.000,4844.6729,N,00906.3678,E,1,08,1.0,463.0,M,48.0,M,,0000*56
$GPRMC,140558.000,A,4844.6729,N,00906.3678,E,0.00,249.74,040708,,,A*67
$GPVTG,249.74,T,,M,0.00,N,0.0,K,A*01
$GPGGA,140559.000,4844.6729,N,00906.3678,E,1,08,1.0,463.0,M,48.0,M,,0000*57
$GPRMC,140559.000,A,4844.6729,N,00906.3678,E,0.00,249.74,040708,,,A*66
$GPVTG,249.74,T,,M,0.00,N,0.0,K,A*01
$GPGGA,140600.000,4844.6730,N,00906.3678,E,1,08,1.0,462.9,M,48.0,M,,0000*58
$GPRMC,140600.000,A,4844.6730,N,00906.3678,E,0.00,249.74,040708,,,A*61
$GPVTG,249.74,T,,M,0.00,N,0.0,K,A*01
$GPGGA,140601.000,4844.6730,N,00906.3679,E,1,08,1.0,462.8,M,48.0,M,,0000*59
$GPGSA,A,3,15,26,09,17,18,12,28,22,,,,,1.9,1.0,1.6*33
$GPGSV,3,1,10,15,71,185,43,26,58,152,40,09,42,282,42,28,38,054,44*79
$GPGSV,3,2,10,17,34,106,37,18,30,289,42,12,14,220,30,22,12,324,38*7C
$GPGSV,3,3,10,08,01,086,,05,01,227,*7C
$GPRMC,140601.000,A,4844.6730,N,00906.3679,E,0.00,249.74,040708,,,A*61
$GPVTG,249.74,T,,M,0.00,N,0.0,K,A*01
$GPGGA,140602.000,4844.6730,N,00906.3679,E,1,08,1.0,462.7,M,48.0,M,,0000*55
$GPRMC,140602.000,A,4844.6730,N,00906.3679,E,0.00,249.74,040708,,,A*62
$GPVTG,249.74,T,,M,0.00,N,0.0,K,A*01
$GPGGA,140603.000,4844.6730,N,00906.3679,E,1,08,1.0,462.7,M,48.0,M,,0000*54
$GPRMC,140603.000,A,4844.6730,N,00906.3679,E,0.00,249.74,040708,,,A*63
$GPVTG,249.74,T,,M,0.00,N,0.0,K,A*01
$GPGGA,140604.000,4844.6730,N,00906.3679,E,1,08,1.0,462.6,M,48.0,M,,0000*52
$GPRMC,140604.000,A,4844.6730,N,00906.3679,E,0.00,249.74,040708,,,A*64
$GPVTG,249.74,T,,M,0.00,N,0.0,K,A*01
$GPGGA,140605.000,4844.6730,N,00906.3679,E,1,08,1.0,462.5,M,48.0,M,,0000*50
$GPRMC,140605.000,A,4844.6730,N,00906.3679,E,0.00,249.74,040708,,,A*65
$GPVTG,249.74,T,,M,0.00,N,0.0,K,A*01
$GPGGA,140606.000,4844.6730,N,00906.3679,E,1,08,1.0,462.4,M,48.0,M,,0000*52
$GPGSA,A,3,15,26,09,17,18,12,28,22,,,,,1.9,1.0,1.6*33
$GPGSV,3,1,10,15,71,185,42,26,58,152,36,09,42,282,42,28,38,054,44*79
$GPGSV,3,2,10,17,34,106,40,18,30,289,43,12,14,220,28,22,12,324,38*74
$GPGSV,3,3,10,08,01,086,25,05,01,227,*7B
$GPRMC,140606.000,A,4844.6730,N,00906.3679,E,0.00,249.74,040708,,,A*66
$GPVTG,249.74,T,,M,0.00,N,0.0,K,A*01
$GPGGA,140607.000,4844.6730,N,00906.3679,E,1,08,1.0,462.3,M,48.0,M,,0000*54
$GPRMC,140607.000,A,4844.6730,N,00906.3679,E,0.00,249.74,040708,,,A*67
$GPVTG,249.74,T,,M,0.00,N,0.0,K,A*01
$GPGGA,140608.000,4844.6730,N,00906.3680,E,1,08,1.0,462.3,M,48.0,M,,0000*5D
$GPRMC,140608.000,A,4844.6730,N,00906.3680,E,0.00,249.74,040708,,,A*6E
$GPVTG,249.74,T,,M,0.00,N,0.0,K,A*01
$GPGGA,140609.000,4844.6730,N,00906.3680,E,1,08,1.0,462.2,M,48.0,M,,0000*5D
$GPRMC,140609.000,A,4844.6730,N,00906.3680,E,0.00,249.74,040708,,,A*6F
$GPVTG,249.74,T,,M,0.00,N,0.0,K,A*01
$GPGGA,140610.000,4844.6730,N,00906.3681,E,1,08,1.0,462.1,M,48.0,M,,0000*57
$GPRMC,140610.000,A,4844.6730,N,00906.3681,E,0.00,249.74,040708,,,A*66
$GPVTG,249.74,T,,M,0.00,N,0.0,K,A*01
$GPGGA,140611.000,4844.6730,N,00906.3681,E,1,08,1.0,462.1,M,48.0,M,,0000*56
$GPGSA,A,3,15,26,09,17,18,12,28,22,,,,,1.9,1.0,1.6*33
$GPGSV,3,1,10,15,71,185,42,26,58,152,36,09,42,282,42,28,38,054,44*79
$GPGSV,3,2,10,17,34,106,40,18,30,289,43,12,14,220,32,22,12,324,38*7F
$GPGSV,3,3,10,08,01,086,24,05,01,227,12*79
$GPRMC,140611.000,A,4844.6730,N,00906.3681,E,0.00,249.74,040708,,,A*67
$GPVTG,249.74,T,,M,0.00,N,0.0,K,A*01
$GPGGA,140612.000,4844.6730,N,00906.3681,E,1,08,1.0,462.0,M,48.0,M,,0000*54
$GPRMC,140612.000,A,4844.6730,N,00906.3681,E,0.00,249.74,040708,,,A*64
$GPVTG,249.74,T,,M,0.00,N,0.0,K,A*01
$GPGGA,140613.000,4844.6730,N,00906.3681,E,1,08,1.0,461.9,M,48.0,M,,0000*5F
$GPRMC,140613.000,A,4844.6730,N,00906.3681,E,0.00,249.74,040708,,,A*65
$GPVTG,249.74,T,,M,0.00,N,0.0,K,A*01
$GPGGA,140614.000,4844.6730,N,00906.3681,E,1,08,1.0,461.8,M,48.0,M,,0000*59
$GPRMC,140614.000,A,4844.6730,N,00906.3681,E,0.00,249.74,040708,,,A*62
$GPVTG,249.74,T,,M,0.00,N,0.0,K,A*01
$GPGGA,140615.000,4844.6730,N,00906.3681,E,1,08,1.0,461.8,M,48.0,M,,0000*58
$GPRMC,140615.000,A,4844.6730,N,00906.3681,E,0.00,249.74,040708,,,A*63
$GPVTG,249.74,T,,M,0.00,N,0.0,K,A*01
$GPGGA,140616.000,4844.6730,N,00906.3681,E,1,08,1.0,461.7,M,48.0,M,,0000*54
$GPGSA,A,3,15,26,09,17,18,12,28,22,,,,,1.9,1.0,1.6*33
$GPGSV,3,1,10,15,71,185,42,26,58,152,36,09,42,282,43,28,38,054,44*78
$GPGSV,3,2,10,17,34,106,40,18,30,289,43,12,14,220,33,22,12,324,37*71
$GPGSV,3,3,10,08,01,086,,05,01,227,*7C
$GPRMC,140616.000,A,4844.6730,N,00906.3681,E,0.00,249.74,040708,,,A*60
$GPVTG,249.74,T,,M,0.00,N,0.0,K,A*01
$GPGGA,140617.000,4844.6730,N,00906.3681,E,1,08,1.0,461.7,M,48.0,M,,0000*55
$GPRMC,140617.000,A,4844.6730,N,00906.3681,E,0.00,249.74,040708,,,A*61
$GPVTG,249.74,T,,M,0.00,N,0.0,K,A*01
$GPGGA,140618.000,4844.6731,N,00906.3682,E,1,08,1.0,461.6,M,48.0,M,,0000*59
$GPRMC,140618.000,A,4844.6731,N,00906.3682,E,0.00,249.74,040708,,,A*6C
$GPVTG,249.74,T,,M,0.00,N,0.0,K,A*01
$GPGGA,140619.000,4844.6730,N,00906.3682,E,1,08,1.0,461.5,M,48.0,M,,0000*5A
$GPRMC,140619.000,A,4844.6730,N,00906.3682,E,0.00,249.74,040708,,,A*6C
$GPVTG,249.74,T,,M,0.00,N,0.0,K,A*01
$GPGGA,140620.000,4844.6730,N,00906.3682,E,1,08,1.0,461.4,M,48.0,M,,0000*51
$GPRMC,140620.000,A,4844.6730,N,00906.3682,E,0.00,249.74,040708,,,A*66
$GPVTG,249.74,T,,M,0.00,N,0.0,K,A*01
$GPGGA,140621.000,4844.6730,N,00906.3682,E,1,08,1.0,461.4,M,48.0,M,,0000*50
$GPGSA,A,3,15,26,09,17,18,12,28,22,,,,,1.9,1.0,1.6*33
$GPGSV,3,1,10,15,71,184,42,26,58,152,36,09,42,282,43,28,38,054,44*79
$GPGSV,3,2,10,17,34,106,40,18,30,288,43,12,15,220,34,22,12,324,37*76
$GPGSV,3,3,10,05,01,227,14,08,01,086,*79
$GPRMC,140621.000,A,4844.6730,N,00906.3682,E,0.00,249.74,040708,,,A*67
$GPVTG,249.74,T,,M,0.00,N,0.0,K,A*01
$GPGGA,140622.000,4844.6730,N,00906.3682,E,1,08,1.0,461.3,M,48.0,M,,0000*54
$GPRMC,140622.000,A,4844.6730,N,00906.3682,E,0.00,249.74,040708,,,A*64
$GPVTG,249.74,T,,M,0.00,N,0.0,K,A*01
$GPGGA,140623.000,4844.6731,N,00906.3683,E,1,08,1.0,461.3,M,48.0,M,,0000*55
$GPRMC,140623.000,A,4844.6731,N,00906.3683,E,0.00,249.74,040708,,,A*65
$GPVTG,249.74,T,,M,0.00,N,0.0,K,A*01
$GPGGA,140624.000,4844.6731,N,00906.3683,E,1,08,1.0,461.2,M,48.0,M,,0000*53
$GPRMC,140624.000,A,4844.6731,N,00906.3683,E,0.00,249.74,040708,,,A*62
$GPVTG,249.74,T,,M,0.00,N,0.0,K,A*01
$GPGGA,140625.000,4844.6731,N,00906.3683,E,1,08,1.0,461.2,M,48.0,M,,0000*52
$GPRMC,140625.000,A,4844.6731,N,00906.3683,E,0.00,249.74,040708,,,A*63
$GPVTG,249.74,T,,M,0.00,N,0.0,K,A*01
$GPGGA,140626.000,4844.6730,N,00906.3683,E,1,08,1.0,461.1,M,48.0,M,,0000*53
$GPGSA,A,3,15,26,09,17,18,12,28,22,,,,,1.9,1.0,1.7*32
$GPGSV,3,1,10,15,71,184,42,26,58,152,41,09,42,282,43,28,38,054,44*79
$GPGSV,3,2,10,17,34,106,40,18,30,288,43,12,15,220,33,22,12,324,37*71
$GPGSV,3,3,10,05,01,227,,08,01,086,24*7A
$GPRMC,140626.000,A,4844.6730,N,00906.3683,E,0.00,249.74,040708,,,A*61
$GPVTG,249.74,T,,M,0.00,N,0.0,K,A*01
$GPGGA,140627.000,4844.6730,N,00906.3683,E,1,08,1.0,461.1,M,48.0,M,,0000*52
$GPRMC,140627.000,A,4844.6730,N,00906.3683,E,0.00,249.74,040708,,,A*60
$GPVTG,249.74,T,,M,0.00,N,0.0,K,A*01
$GPGGA,140628.000,4844.6731,N,00906.3684,E,1,08,1.0,461.3,M,48.0,M,,0000*59
$GPRMC,140628.000,A,4844.6731,N,00906.3684,E,0.00,249.74,040708,,,A*69
$GPVTG,249.74,T,,M,0.00,N,0.0,K,A*01
$GPGGA,140629.000,4844.6732,N,00906.3684,E,1,08,1.0,461.6,M,48.0,M,,0000*5E
$GPRMC,140629.000,A,4844.6732,N,00906.3684,E,0.00,249.74,040708,,,A*6B
$GPVTG,249.74,T,,M,0.00,N,0.0,K,A*01
$GPGGA,140630.000,4844.6732,N,00906.3683,E,1,08,1.0,461.6,M,48.0,M,,0000*51
$GPRMC,140630.000,A,4844.6732,N,00906.3683,E,0.00,249.74,040708,,,A*64
$GPVTG,249.74,T,,M,0.00,N,0.0,K,A*01
$GPGGA,140631.000,4844.6732,N,00906.3683,E,1,08,1.0,461.5,M,48.0,M,,0000*53
$GPGSA,A,3,15,26,09,17,18,12,28,22,,,,,1.9,1.0,1.7*32
$GPGSV,3,1,10,15,71,184,42,26,58,152,36,09,42,282,43,28,38,054,44*79
$GPGSV,3,2,10,17,34,106,40,18,30,288,43,12,15,220,25,22,12,324,37*76
$GPGSV,3,3,10,05,01,227,21,08,01,086,*7F
$GPRMC,140631.000,A,4844.6732,N,00906.3683,E,0.00,249.74,040708,,,A*65
$GPVTG,249.74,T,,M,0.00,N,0.0,K,A*01
$GPGGA,140632.000,4844.6732,N,00906.3684,E,1,08,1.0,461.5,M,48.0,M,,0000*57
$GPRMC,140632.000,A,4844.6732,N,00906.3684,E,0.00,249.74,040708,,,A*61
$GPVTG,249.74,T,,M,0.00,N,0.0,K,A*01
$GPGGA,140633.000,4844.6732,N,00906.3684,E,1,08,1.0,461.4,M,48.0,M,,0000*57
$GPRMC,140633.000,A,4844.6732,N,00906.3684,E,0.00,249.74,040708,,,A*60
$GPVTG,249.74,T,,M,0.00,N,0.0,K,A*01
$GPGGA,140634.000,4844.6732,N,00906.3684,E,1,08,1.0,461.4,M,48.0,M,,0000*50
$GPRMC,140634.000,A,4844.6732,N,00906.3684,E,0.00,249.74,040708,,,A*67
$GPVTG,249.74,T,,M,0.00,N,0.0,K,A*01
$GPGGA,140635.000,4844.6732,N,00906.3684,E,1,08,1.0,461.3,M,48.0,M,,0000*56
$GPRMC,140635.000,A,4844.6732,N,00906.3684,E,0.00,249.74,040708,,,A*66
$GPVTG,249.74,T,,M,0.00,N,0.0,K,A*01
$GPGGA,140636.000,4844.6732,N,00906.3684,E,1,08,1.0,461.2,M,48.0,M,,0000*54
$GPGSA,A,3,15,26,09,17,18,12,28,22,,,,,1.9,1.0,1.7*32
$GPGSV,3,1,10,15,71,184,42,26,58,152,38,09,42,282,42,28,38,054,44*76
$GPGSV,3,2,10,17,34,106,40,18,30,288,43,12,15,220,29,22,12,324,37*7A
$GPGSV,3,3,10,05,01,227,,08,01,086,26*78
$GPRMC,140636.000,A,4844.6732,N,00906.3684,E,0.00,249.74,040708,,,A*65
$GPVTG,249.74,T,,M,0.00,N,0.0,K,A*01
$GPGGA,140637.000,4844.6732,N,00906.3685,E,1,08,1.0,461.1,M,48.0,M,,0000*57
$GPRMC,140637.000,A,4844.6732,N,00906.3685,E,0.00,249.74,040708,,,A*65
$GPVTG,249.74,T,,M,0.00,N,0.0,K,A*01
$GPGGA,140638.000,4844.6732,N,00906.3685,E,1,08,1.0,461.1,M,48.0,M,,0000*58
$GPRMC,140638.000,A,4844.6732,N,00906.3685,E,0.00,249.74,040708,,,A*6A
$GPVTG,249.74,T,,M,0.00,N,0.0,K,A*01
$GPGGA,140639.000,4844.6732,N,00906.3685,E,1,08,1.0,461.0,M,48.0,M,,0000*58
$GPRMC,140639.000,A,4844.6732,N,00906.3685,E,0.00,249.74,040708,,,A*6B
$GPVTG,249.74,T,,M,0.00,N,0.0,K,A*01
$GPGGA,140640.000,4844.6732,N,00906.3685,E,1,08,1.0,461.0,M,48.0,M,,0000*56
$GPRMC,140640.000,A,4844.6732,N,00906.3685,E,0.00,249.74,040708,,,A*65
$GPVTG,249.74,T,,M,0.00,N,0.0,K,A*01
$GPGGA,140641.000,4844.6734,N,00906.3684,E,1,08,1.0,461.5,M,48.0,M,,0000*55
$GPGSA,A,3,15,26,09,17,18,12,28,22,,,,,1.9,1.0,1.7*32
$GPGSV,3,1,10,15,71,184,42,26,58,152,39,09,42,282,43,28,38,054,44*76
$GPGSV,3,2,10,17,34,106,36,18,30,288,42,12,15,220,37,22,12,324,37*75
$GPGSV,3,3,10,05,01,227,,08,01,086,25*7B
$GPRMC,140641.000,A,4844.6734,N,00906.3684,E,0.00,249.74,040708,,,A*63
$GPVTG,249.74,T,,M,0.00,N,0.0,K,A*01
$GPGGA,140642.000,4844.6735,N,00906.3683,E,1,08,1.0,461.9,M,48.0,M,,0000*5C
$GPRMC,140642.000,A,4844.6735,N,00906.3683,E,0.00,249.74,040708,,,A*66
$GPVTG,249.74,T,,M,0.00,N,0.0,K,A*01
$GPGGA,140643.000,4844.6737,N,00906.3683,E,1,08,1.0,462.4,M,48.0,M,,0000*51
$GPRMC,140643.000,A,4844.6737,N,00906.3683,E,0.00,249.74,040708,,,A*65
$GPVTG,249.74,T,,M,0.00,N,0.0,K,A*01
$GPGGA,140644.000,4844.6738,N,00906.3684,E,1,08,1.0,462.7,M,48.0,M,,0000*5D
$GPRMC,140644.000,A,4844.6738,N,00906.3684,E,0.00,249.74,040708,,,A*6A
$GPVTG,249.74,T,,M,0.00,N,0.0,K,A*01
$GPGGA,140645.000,4844.6739,N,00906.3684,E,1,08,1.0,463.1,M,48.0,M,,0000*5A
$GPRMC,140645.000,A,4844.6739,N,00906.3684,E,0.00,249.74,040708,,,A*6A
$GPVTG,249.74,T,,M,0.00,N,0.0,K,A*01
$GPGGA,140646.000,4844.6740,N,00906.3684,E,1,08,1.0,463.4,M,48.0,M,,0000*52
$GPGSA,A,3,15,26,09,17,18,12,28,22,,,,,1.9,1.0,1.7*32
$GPGSV,3,1,10,15,71,184,42,26,58,152,39,09,42,282,44,28,38,054,44*71
$GPGSV,3,2,10,17,34,106,32,18,30,288,43,12,15,220,39,22,12,324,38*71
$GPGSV,3,3,10,05,01,227,,08,01,086,*7C
$GPRMC,140646.000,A,4844.6740,N,00906.3684,E,0.00,249.74,040708,,,A*67
$GPVTG,249.74,T,,M,0.00,N,0.0,K,A*01
$GPGGA,140647.000,4844.6741,N,00906.3684,E,1,08,1.0,463.6,M,48.0,M,,0000*50
$GPRMC,140647.000,A,4844.6741,N,00906.3684,E,0.00,249.74,040708,,,A*67
$GPVTG,249.74,T,,M,0.00,N,0.0,K,A*01
$GPGGA,140648.000,4844.6742,N,00906.3684,E,1,08,1.0,463.8,M,48.0,M,,0000*52
$GPRMC,140648.000,A,4844.6742,N,00906.3684,E,0.00,249.74,040708,,,A*6B
$GPVTG,249.74,T,,M,0.00,N,0.0,K,A*01
$GPGGA,140649.000,4844.6742,N,00906.3684,E,1,08,1.0,464.0,M,48.0,M,,0000*5C
$GPRMC,140649.000,A,4844.6742,N,00906.3684,E,0.00,249.74,040708,,,A*6A
$GPVTG,249.74,T,,M,0.00,N,0.0,K,A*01
$GPGGA,140650.000,4844.6743,N,00906.3685,E,1,08,1.0,464.2,M,48.0,M,,0000*56
$GPRMC,140650.000,A,4844.6743,N,00906.3685,E,0.00,249.74,040708,,,A*62
$GPVTG,249.74,T,,M,0.00,N,0.0,K,A*01
$GPGGA,140651.000,4844.6744,N,00906.3685,E,1,08,1.0,464.4,M,48.0,M,,0000*56
$GPGSA,A,3,15,26,09,17,18,12,28,22,,,,,1.9,1.0,1.7*32
$GPGSV,3,1,10,15,71,184,43,26,58,152,39,09,42,282,44,28,37,054,43*78
$GPGSV,3,2,10,17,34,106,35,18,30,288,43,12,15,220,39,22,12,324,38*76
$GPGSV,3,3,10,05,01,227,,08,01,086,15*78
$GPRMC,140651.000,A,4844.6744,N,00906.3685,E,0.00,249.74,040708,,,A*64
$GPVTG,249.74,T,,M,0.00,N,0.0,K,A*01
$GPGGA,140652.000,4844.6744,N,00906.3684,E,1,08,1.0,464.6,M,48.0,M,,0000*56
$GPRMC,140652.000,A,4844.6744,N,00906.3684,E,0.00,249.74,040708,,,A*66
$GPVTG,249.74,T,,M,0.00,N,0.0,K,A*01
$GPGGA,140653.000,4844.6745,N,00906.3684,E,1,08,1.0,464.8,M,48.0,M,,0000*58
$GPRMC,140653.000,A,4844.6745,N,00906.3684,E,0.00,249.74,040708,,,A*66
$GPVTG,249.74,T,,M,0.00,N,0.0,K,A*01
$GPGGA,140654.000,4844.6746,N,00906.3684,E,1,08,1.0,465.0,M,48.0,M,,0000*55
$GPRMC,140654.000,A,4844.6746,N,00906.3684,E,0.00,249.74,040708,,,A*62
$GPVTG,249.74,T,,M,0.00,N,0.0,K,A*01
$GPGGA,140655.000,4844.6747,N,00906.3684,E,1,08,1.0,465.1,M,48.0,M,,0000*54
$GPRMC,140655.000,A,4844.6747,N,00906.3684,E,0.00,249.74,040708,,,A*62
$GPVTG,249.74,T,,M,0.00,N,0.0,K,A*01
$GPGGA,140656.000,4844.6747,N,00906.3683,E,1,08,1.0,465.3,M,48.0,M,,0000*52
$GPGSA,A,3,15,26,09,17,18,12,28,22,,,,,1.9,1.0,1.7*32
$GPGSV,3,1,10,15,71,184,42,26,58,152,34,09,42,282,44,28,37,054,44*73
$GPGSV,3,2,10,17,34,106,34,18,30,288,44,12,15,220,38,22,12,324,38*71
$GPGSV,3,3,10,05,01,227,,08,01,086,12*7F
$GPRMC,140656.000,A,4844.6747,N,00906.3683,E,0.00,249.74,040708,,,A*66
$GPVTG,249.74,T,,M,0.00,N,0.0,K,A*01
$GPGGA,140657.000,4844.6747,N,00906.3683,E,1,08,1.0,465.3,M,48.0,M,,0000*53
$GPRMC,140657.000,A,4844.6747,N,00906.3683,E,0.00,249.74,040708,,,A*67
$GPVTG,249.74,T,,M,0.00,N,0.0,K,A*01
$GPGGA,140658.000,4844.6747,N,00906.3682,E,1,08,1.0,465.2,M,48.0,M,,0000*5C
$GPRMC,140658.000,A,4844.6747,N,00906.3682,E,0.00,249.74,040708,,,A*69
$GPVTG,249.74,T,,M,0.00,N,0.0,K,A*01
$GPGGA,140659.000,4844.6745,N,00906.3678,E,1,08,1.0,465.3,M,48.0,M,,0000*5B
$GPRMC,140659.000,A,4844.6745,N,00906.3678,E,0.00,249.74,040708,,,A*6F
$GPVTG,249.74,T,,M,0.00,N,0.0,K,A*01
$GPGGA,140700.000,4844.6741,N,00906.3671,E,1,08,1.0,465.3,M,48.0,M,,0000*5B
$GPRMC,140700.000,A,4844.6741,N,00906.3671,E,2.17,234.83,040708,,,A*69
$GPVTG,234.83,T,,M,2.17,N,4.0,K,A*03
$GPGGA,140701.000,4844.6737,N,00906.3660,E,1,08,1.0,465.2,M,48.0,M,,0000*5A
$GPGSA,A,3,15,26,09,17,18,12,28,22,,,,,1.9,1.0,1.7*32
$GPGSV,3,1,10,15,71,184,42,26,58,152,44,09,42,282,45,28,37,054,43*72
$GPGSV,3,2,10,17,34,106,41,18,30,288,43,12,15,220,31,22,12,324,37*72
$GPGSV,3,3,10,05,01,227,,08,01,086,*7C
$GPRMC,140701.000,A,4844.6737,N,00906.3660,E,2.96,246.86,040708,,,A*60
$GPVTG,246.86,T,,M,2.96,N,5.5,K,A*0E
$GPGGA,140702.000,4844.6733,N,00906.3645,E,1,08,1.0,465.1,M,48.0,M,,0000*59
$GPRMC,140702.000,A,4844.6733,N,00906.3645,E,3.82,251.17,040708,,,A*6A
$GPVTG,251.17,T,,M,3.82,N,7.1,K,A*02
$GPGGA,140703.000,4844.6728,N,00906.3625,E,1,08,1.0,465.0,M,48.0,M,,0000*55
$GPRMC,140703.000,A,4844.6728,N,00906.3625,E,5.00,245.02,040708,,,A*6A
$GPVTG,245.02,T,,M,5.00,N,9.3,K,A*03
$GPGGA,140704.000,4844.6721,N,00906.3602,E,1,08,1.0,464.9,M,48.0,M,,0000*56
$GPRMC,140704.000,A,4844.6721,N,00906.3602,E,5.85,250.11,040708,,,A*6A
$GPVTG,250.11,T,,M,5.85,N,10.8,K,A*3B
$GPGGA,140705.000,4844.6714,N,00906.3577,E,1,08,1.0,464.8,M,48.0,M,,0000*51
$GPRMC,140705.000,A,4844.6714,N,00906.3577,E,6.25,244.21,040708,,,A*63
$GPVTG,244.21,T,,M,6.25,N,11.6,K,A*3B
$GPGGA,140706.000,4844.6707,N,00906.3554,E,1,08,1.0,464.8,M,48.0,M,,0000*51
$GPGSA,A,3,15,26,09,17,18,12,28,22,,,,,1.9,1.0,1.7*32
$GPGSV,3,1,10,15,71,184,42,26,58,152,43,09,42,282,44,28,37,054,43*74
$GPGSV,3,2,10,17,34,106,41,18,30,288,43,12,15,220,33,22,12,324,25*73
$GPGSV,3,3,10,05,01,227,,08,01,086,*7C
$GPRMC,140706.000,A,4844.6707,N,00906.3554,E,6.15,244.96,040708,,,A*6C
$GPVTG,244.96,T,,M,6.15,N,11.4,K,A*36
$GPGGA,140707.000,4844.6700,N,00906.3530,E,1,08,1.0,464.8,M,48.0,M,,0000*55
$GPRMC,140707.000,A,4844.6700,N,00906.3530,E,6.15,245.79,040708,,,A*68
$GPVTG,245.79,T,,M,6.15,N,11.4,K,A*36
$GPGGA,140708.000,4844.6692,N,00906.3505,E,1,08,1.0,464.8,M,48.0,M,,0000*56
$GPRMC,140708.000,A,4844.6692,N,00906.3505,E,6.50,244.43,040708,,,A*62
$GPVTG,244.43,T,,M,6.50,N,12.0,K,A*38
$GPGGA,140709.000,4844.6683,N,00906.3480,E,1,08,1.0,464.7,M,48.0,M,,0000*54
$GPRMC,140709.000,A,4844.6683,N,00906.3480,E,6.68,241.28,040708,,,A*6C
$GPVTG,241.28,T,,M,6.68,N,12.4,K,A*3F
$GPGGA,140710.000,4844.6674,N,00906.3455,E,1,08,1.0,464.8,M,48.0,M,,0000*53
$GPRMC,140710.000,A,4844.6674,N,00906.3455,E,6.68,241.57,040708,,,A*6C
$GPVTG,241.57,T,,M,6.68,N,12.4,K,A*37
$GPGGA,140711.000,4844.6665,N,00906.3429,E,1,08,1.0,464.7,M,48.0,M,,0000*56
$GPGSA,A,3,15,26,09,17,18,12,28,22,,,,,1.9,1.0,1.7*32
$GPGSV,3,1,11,15,71,184,42,26,58,152,43,09,42,282,44,28,37,054,42*74
$GPGSV,3,2,11,17,34,106,41,18,30,288,40,12,15,220,22,22,12,324,16*71
$GPGSV,3,3,11,05,01,227,,08,01,086,,37,32,162,23*4C
$GPRMC,140711.000,A,4844.6665,N,00906.3429,E,6.75,242.66,040708,,,A*6B
$GPVTG,242.66,T,,M,6.75,N,12.5,K,A*3B
$GPGGA,140712.000,4844.6656,N,00906.3404,E,1,08,1.0,464.7,M,48.0,M,,0000*5A
$GPRMC,140712.000,A,4844.6656,N,00906.3404,E,6.86,241.61,040708,,,A*6F
$GPVTG,241.61,T,,M,6.86,N,12.7,K,A*31
$GPGGA,140713.000,4844.6647,N,00906.3379,E,1,08,1.0,464.8,M,48.0,M,,0000*59
$GPRMC,140713.000,A,4844.6647,N,00906.3379,E,6.73,240.79,040708,,,A*61
$GPVTG,240.79,T,,M,6.73,N,12.5,K,A*31
$GPGGA,140714.000,4844.6638,N,00906.3355,E,1,08,1.0,464.8,M,48.0,M,,0000*58
$GPRMC,140714.000,A,4844.6638,N,00906.3355,E,6.37,240.98,040708,,,A*6F
$GPVTG,240.98,T,,M,6.37,N,11.8,K,A*30
$GPGGA,140715.000,4844.6630,N,00906.3333,E,1,08,1.0,465.0,M,48.0,M,,0000*58
$GPRMC,140715.000,A,4844.6630,N,00906.3333,E,5.90,245.86,040708,,,A*62
$GPVTG,245.86,T,,M,5.90,N,10.9,K,A*34
$GPGGA,140716.000,4844.6624,N,00906.3311,E,1,08,1.0,465.4,M,48.0,M,,0000*5A
$GPGSA,A,3,15,26,09,17,18,12,28,22,,,,,2.0,1.0,1.7*38
$GPGSV,3,1,10,15,71,184,40,26,58,152,34,09,42,282,42,28,37,054,37*73
$GPGSV,3,2,10,17,34,106,41,18,30,288,28,12,15,220,32,22,12,324,15*7C
$GPGSV,3,3,10,05,01,227,11,08,01,086,*7C
$GPRMC,140716.000,A,4844.6624,N,00906.3311,E,5.68,246.45,040708,,,A*6F
$GPVTG,246.45,T,,M,5.68,N,10.5,K,A*33
$GPGGA,140717.000,4844.6618,N,00906.3289,E,1,08,1.0,465.9,M,48.0,M,,0000*59
$GPRMC,140717.000,A,4844.6618,N,00906.3289,E,5.80,244.30,040708,,,A*67
$GPVTG,244.30,T,,M,5.80,N,10.7,K,A*37
$GPGGA,140718.000,4844.6611,N,00906.3265,E,1,08,1.0,466.1,M,48.0,M,,0000*56
$GPRMC,140718.000,A,4844.6611,N,00906.3265,E,6.06,242.93,040708,,,A*61
$GPVTG,242.93,T,,M,6.06,N,11.2,K,A*31
$GPGGA,140719.000,4844.6602,N,00906.3240,E,1,08,1.0,466.2,M,48.0,M,,0000*51
$GPRMC,140719.000,A,4844.6602,N,00906.3240,E,6.57,241.90,040708,,,A*61
$GPVTG,241.90,T,,M,6.57,N,12.2,K,A*36
$GPGGA,140720.000,4844.6593,N,00906.3213,E,1,08,1.0,466.2,M,48.0,M,,0000*56
$GPRMC,140720.000,A,4844.6593,N,00906.3213,E,7.08,243.66,040708,,,A*66
$GPVTG,243.66,T,,M,7.08,N,13.1,K,A*34
$GPGGA,140721.000,4844.6584,N,00906.3186,E,1,08,1.0,466.2,M,48.0,M,,0000*5E
$GPGSA,A,3,15,26,09,17,18,12,28,22,,,,,2.0,1.0,1.7*38
$GPGSV,3,1,10,15,70,184,41,26,57,152,39,09,43,282,38,28,37,054,39*73
$GPGSV,3,2,10,17,34,106,35,18,30,288,40,12,15,220,31,22,12,324,15*72
$GPGSV,3,3,10,05,01,227,,08,01,087,*7D
$GPRMC,140721.000,A,4844.6584,N,00906.3186,E,7.11,244.32,040708,,,A*60
$GPVTG,244.32,T,,M,7.11,N,13.2,K,A*39
$GPGGA,140722.000,4844.6576,N,00906.3160,E,1,08,1.0,466.4,M,48.0,M,,0000*5E
$GPRMC,140722.000,A,4844.6576,N,00906.3160,E,6.72,249.08,040708,,,A*66
$GPVTG,249.08,T,,M,6.72,N,12.4,K,A*3E
$GPGGA,140723.000,4844.6568,N,00906.3133,E,1,08,1.0,466.3,M,48.0,M,,0000*51
$GPRMC,140723.000,A,4844.6568,N,00906.3133,E,6.82,247.41,040708,,,A*62
$GPVTG,247.41,T,,M,6.82,N,12.6,K,A*30
$GPGGA,140724.000,4844.6559,N,00906.3103,E,1,08,1.0,466.5,M,48.0,M,,0000*51
$GPRMC,140724.000,A,4844.6559,N,00906.3103,E,7.51,243.67,040708,,,A*6B
$GPVTG,243.67,T,,M,7.51,N,13.9,K,A*31
$GPGGA,140725.000,4844.6549,N,00906.3073,E,1,08,1.0,466.5,M,48.0,M,,0000*57
$GPRMC,140725.000,A,4844.6549,N,00906.3073,E,7.67,243.26,040708,,,A*6D
$GPVTG,243.26,T,,M,7.67,N,14.2,K,A*3D
$GPGGA,140726.000,4844.6538,N,00906.3042,E,1,08,1.0,466.3,M,48.0,M,,0000*56
$GPGSA,A,3,15,26,09,17,18,12,28,22,,,,,2.0,1.0,1.7*38
$GPGSV,3,1,11,15,70,184,41,26,57,152,40,09,43,282,37,28,37,054,32*78
$GPGSV,3,2,11,17,34,106,36,18,30,288,39,12,15,220,35,22,12,324,13*7C
$GPGSV,3,3,11,05,01,227,,08,01,087,,37,32,162,23*4D
$GPRMC,140726.000,A,4844.6538,N,00906.3042,E,7.90,245.14,040708,,,A*65
$GPVTG,245.14,T,,M,7.90,N,14.6,K,A*36
$GPGGA,140727.000,4844.6527,N,00906.3010,E,1,08,1.0,466.4,M,48.0,M,,0000*59
$GPRMC,140727.000,A,4844.6527,N,00906.3010,E,8.47,241.98,040708,,,A*68
$GPVTG,241.98,T,,M,8.47,N,15.7,K,A*33
$GPGGA,140728.000,4844.6515,N,00906.2977,E,1,08,1.0,466.1,M,48.0,M,,0000*5B
$GPRMC,140728.000,A,4844.6515,N,00906.2977,E,8.55,245.72,040708,,,A*6C
$GPVTG,245.72,T,,M,8.55,N,15.8,K,A*3F
$GPGGA,140729.000,4844.6503,N,00906.2944,E,1,08,1.0,466.2,M,48.0,M,,0000*5E
$GPRMC,140729.000,A,4844.6503,N,00906.2944,E,8.53,239.07,040708,,,A*65
$GPVTG,239.07,T,,M,8.53,N,15.8,K,A*30
$GPGGA,140730.000,4844.6488,N,00906.2915,E,1,08,1.0,466.3,M,48.0,M,,0000*51
$GPRMC,140730.000,A,4844.6488,N,00906.2915,E,8.22,230.00,040708,,,A*63
$GPVTG,230.00,T,,M,8.22,N,15.2,K,A*32
$GPGGA,140731.000,4844.6472,N,00906.2891,E,1,07,1.1,466.3,M,48.0,M,,0000*56
$GPGSA,A,3,15,26,09,17,18,12,28,,,,,,2.2,1.1,1.9*35
$GPGSV,3,1,10,15,70,184,42,26,57,152,41,09,43,282,41,28,37,054,41*7E
$GPGSV,3,2,10,17,34,106,42,18,30,288,27,12,15,220,29,22,12,324,*7E
$GPGSV,3,3,10,05,01,227,,08,01,087,11*7D
$GPRMC,140731.000,A,4844.6472,N,00906.2891,E,7.69,221.81,040708,,,A*63
$GPVTG,221.81,T,,M,7.69,N,14.2,K,A*3A
$GPGGA,140732.000,4844.6454,N,00906.2874,E,1,07,1.1,466.5,M,48.0,M,,0000*5C
$GPRMC,140732.000,A,4844.6454,N,00906.2874,E,7.42,205.15,040708,,,A*6D
$GPVTG,205.15,T,,M,7.42,N,13.7,K,A*3A
$GPGGA,140733.000,4844.6432,N,00906.2861,E,1,07,1.1,466.1,M,48.0,M,,0000*5D
$GPRMC,140733.000,A,4844.6432,N,00906.2861,E,7.31,197.99,040708,,,A*60
$GPVTG,197.99,T,,M,7.31,N,13.5,K,A*30
$GPGGA,140734.000,4844.6410,N,00906.2850,E,1,07,1.1,465.6,M,48.0,M,,0000*5C
$GPRMC,140734.000,A,4844.6410,N,00906.2850,E,7.32,198.24,040708,,,A*6F
$GPVTG,198.24,T,,M,7.32,N,13.6,K,A*39
$GPGGA,140735.000,4844.6388,N,00906.2839,E,1,07,1.1,465.4,M,48.0,M,,0000*56
$GPRMC,140735.000,A,4844.6388,N,00906.2839,E,7.35,200.64,040708,,,A*66
$GPVTG,200.64,T,,M,7.35,N,13.6,K,A*38
$GPGGA,140736.000,4844.6369,N,00906.2825,E,1,07,1.1,465.2,M,48.0,M,,0000*51
$GPGSA,A,3,15,26,09,17,18,12,28,,,,,,2.2,1.1,1.9*35
$GPGSV,3,1,10,15,70,184,41,26,57,152,40,09,43,282,43,28,37,054,41*7E
$GPGSV,3,2,10,17,34,106,42,18,30,288,39,12,15,220,41,22,12,324,*7F
$GPGSV,3,3,10,05,01,227,,08,01,087,21*7E
$GPRMC,140736.000,A,4844.6369,N,00906.2825,E,7.16,205.54,040708,,,A*60
$GPVTG,205.54,T,,M,7.16,N,13.3,K,A*3A
$GPGGA,140737.000,4844.6350,N,00906.2811,E,1,07,1.1,464.9,M,48.0,M,,0000*57
$GPRMC,140737.000,A,4844.6350,N,00906.2811,E,7.00,202.84,040708,,,A*61
$GPVTG,202.84,T,,M,7.00,N,13.0,K,A*34
$GPGGA,140738.000,4844.6330,N,00906.2797,E,1,07,1.1,464.5,M,48.0,M,,0000*53
$GPRMC,140738.000,A,4844.6330,N,00906.2797,E,7.29,204.32,040708,,,A*69
$GPVTG,204.32,T,,M,7.29,N,13.5,K,A*31
$GPGGA,140739.000,4844.6310,N,00906.2782,E,1,07,1.1,464.1,M,48.0,M,,0000*50
$GPRMC,140739.000,A,4844.6310,N,00906.2782,E,7.63,204.05,040708,,,A*64
$GPVTG,204.05,T,,M,7.63,N,14.1,K,A*38
$GPGGA,140740.000,4844.6290,N,00906.2769,E,1,07,1.1,464.0,M,48.0,M,,0000*53
$GPRMC,140740.000,A,4844.6290,N,00906.2769,E,7.33,200.66,040708,,,A*62
$GPVTG,200.66,T,,M,7.33,N,13.6,K,A*3C
$GPGGA,140741.000,4844.6271,N,00906.2757,E,1,07,1.1,463.9,M,48.0,M,,0000*5E
$GPGSA,A,3,15,26,09,17,18,12,28,,,,,,2.2,1.1,1.9*35
$GPGSV,3,1,10,15,70,184,42,26,57,152,40,09,43,282,44,28,37,054,41*7A
$GPGSV,3,2,10,17,34,106,38,18,30,288,40,12,15,220,40,22,12,324,*7D
$GPGSV,3,3,10,05,01,227,,08,01,087,*7D
$GPRMC,140741.000,A,4844.6271,N,00906.2757,E,7.13,200.36,040708,,,A*66
$GPVTG,200.36,T,,M,7.13,N,13.2,K,A*3F
$GPGGA,140742.000,4844.6251,N,00906.2745,E,1,07,1.1,463.7,M,48.0,M,,0000*52
$GPRMC,140742.000,A,4844.6251,N,00906.2745,E,7.48,202.68,040708,,,A*63
$GPVTG,202.68,T,,M,7.48,N,13.9,K,A*33
$GPGGA,140743.000,4844.6231,N,00906.2730,E,1,07,1.1,463.5,M,48.0,M,,0000*55
$GPRMC,140743.000,A,4844.6231,N,00906.2730,E,7.83,206.82,040708,,,A*61
$GPVTG,206.82,T,,M,7.83,N,14.5,K,A*3F
$GPGGA,140744.000,4844.6211,N,00906.2712,E,1,07,1.1,463.3,M,48.0,M,,0000*56
$GPRMC,140744.000,A,4844.6211,N,00906.2712,E,8.12,212.70,040708,,,A*6B
$GPVTG,212.70,T,,M,8.12,N,15.0,K,A*34
$GPGGA,140745.000,4844.6191,N,00906.2690,E,1,07,1.1,463.1,M,48.0,M,,0000*55
$GPRMC,140745.000,A,4844.6191,N,00906.2690,E,8.35,220.15,040708,,,A*6D
$GPVTG,220.15,T,,M,8.35,N,15.5,K,A*36
$GPGGA,140746.000,4844.6174,N,00906.2665,E,1,08,1.0,462.8,M,48.0,M,,0000*51
$GPGSA,A,3,15,26,09,17,18,12,22,28,,,,,2.0,1.0,1.7*38
$GPGSV,3,1,10,15,70,184,41,26,57,152,39,09,43,282,44,28,37,054,41*77
$GPGSV,3,2,10,17,34,106,39,18,30,288,41,12,15,220,39,22,12,324,26*77
$GPGSV,3,3,10,05,01,227,,08,01,087,14*78
$GPRMC,140746.000,A,4844.6174,N,00906.2665,E,8.44,225.24,040708,,,A*6E
$GPVTG,225.24,T,,M,8.44,N,15.6,K,A*34
$GPGGA,140747.000,4844.6156,N,00906.2639,E,1,08,1.0,462.6,M,48.0,M,,0000*57
$GPRMC,140747.000,A,4844.6156,N,00906.2639,E,8.48,224.72,040708,,,A*68
$GPVTG,224.72,T,,M,8.48,N,15.7,K,A*3B
$GPGGA,140748.000,4844.6139,N,00906.2613,E,1,08,1.0,462.4,M,48.0,M,,0000*5B
$GPRMC,140748.000,A,4844.6139,N,00906.2613,E,8.52,223.59,040708,,,A*63
$GPVTG,223.59,T,,M,8.52,N,15.8,K,A*31
$GPGGA,140749.000,4844.6122,N,00906.2588,E,1,08,1.0,462.3,M,48.0,M,,0000*56
$GPRMC,140749.000,A,4844.6122,N,00906.2588,E,8.40,224.47,040708,,,A*62
$GPVTG,224.47,T,,M,8.40,N,15.6,K,A*34
$GPGGA,140750.000,4844.6105,N,00906.2562,E,1,08,1.0,462.2,M,48.0,M,,0000*5E
$GPRMC,140750.000,A,4844.6105,N,00906.2562,E,8.39,225.39,040708,,,A*6D
$GPVTG,225.39,T,,M,8.39,N,15.5,K,A*31
$GPGGA,140751.000,4844.6087,N,00906.2537,E,1,08,1.0,462.0,M,48.0,M,,0000*56
$GPGSA,A,3,15,26,09,17,18,12,22,28,,,,,2.0,1.0,1.7*38
$GPGSV,3,1,10,15,70,183,42,26,57,153,39,09,43,282,44,28,37,054,42*71
$GPGSV,3,2,10,17,34,105,40,18,30,288,42,12,15,220,38,22,12,324,32*7D
$GPGSV,3,3,10,05,01,227,,08,00,087,11*7C
$GPRMC,140751.000,A,4844.6087,N,00906.2537,E,8.48,222.41,040708,,,A*69
$GPVTG,222.41,T,,M,8.48,N,15.7,K,A*3D
$GPGGA,140752.000,4844.6070,N,00906.2513,E,1,08,1.0,461.8,M,48.0,M,,0000*50
